"AGNO,N,19,11","RBD,N,19,11","DGV_RBD,N,19,11","NOM_RBD,C,254","TIPO_DEPEN,C,254","TIPO_SOSTE,C,254","COD_REG,N,19,11","COD_PROV,N,19,11","NOM_PROV,C,254","COD_DEPROV,N,19,11","NOM_DEPROV,C,254","COD_COM,N,19,11","NOM_COM,C,254","DIRECCION,C,254","NUMERO,N,19,11","REFERENCIA,C,254","LATITUD,N,19,11","LONGITUD,N,19,11","MAT_TOT,N,19,11","MAT_PARV,N,19,11","MAT_BAS_RE,N,19,11","MAT_BAS_AD,N,19,11","MAT_ESP,N,19,11","MAT_MHC_RE,N,19,11","MAT_MHC_AD,N,19,11","MAT_MTP_RE,N,19,11","MAT_MTP_AD,N,19,11","MAT_HOM_TO,N,19,11","MAT_MUJ_TO,N,19,11","MAT_SI_TO,N,19,11","MAT_CHI,N,19,11","MAT_EXT,N,19,11","MAT_NAC,N,19,11","MAT_ETNIA,N,19,11","MAT_NO_ETN,N,19,11","MAT_SI_ETN,N,19,11","CUR_SIM_TO,N,19,11","CUR_COMB_T,N,19,11"
2020,1,9,LICEO POLITECNICO ARICA,SERVICIO LOCAL DE EDUCACI?ÙN,PERSONA JUR?ÏDICA,15,151,ARICA,151,ARICA,15101,ARICA,18 DE SEPTIEMBRE,2221,FRENTE A LA UNIVERSIDAD TARAPAC?¸ (CAMPUS SAUCACHE),-18.4872,-70.295212,603,0,0,0,0,0,0,400,203,338,265,0,501,101,1,165,435,3,36,0
2020,2,7,PARVULARIO LAS ESPIGUITAS,SERVICIO LOCAL DE EDUCACI?ÙN,PERSONA JUR?ÏDICA,15,151,ARICA,151,ARICA,15101,ARICA,RONALD ROSS,2165,POB. JUAN NOE,-18.46986198,-70.30275726,200,200,0,0,0,0,0,0,0,103,97,0,199,1,0,48,152,0,8,0
2020,3,5,ESC. PEDRO VICENTE GUTIERREZ TORRES,SERVICIO LOCAL DE EDUCACI?ÙN,PERSONA JUR?ÏDICA,15,151,ARICA,151,ARICA,15101,ARICA,RUTA 5,2063,"CENTRO PENITENCIARIO DE ACHA, ARICA-QUEBRADA DE ACHA S/N 2063 RUTA 5-ANEXO SANTIAGO FLORES,PARC 14 CERRO SOMBRERO",-18.50358009,-70.26082611,469,0,0,462,0,0,7,0,0,373,96,0,125,344,0,17,452,0,45,0
2020,4,3,LICEO OCTAVIO PALMA PEREZ,SERVICIO LOCAL DE EDUCACI?ÙN,PERSONA JUR?ÏDICA,15,151,ARICA,151,ARICA,15101,ARICA,SANTA MARIA,1697,,-18.474239,-70.308273,990,0,0,0,0,990,0,0,0,450,540,0,951,39,0,204,785,1,27,0
2020,5,1,JOVINA NARANJO FERNANDEZ,SERVICIO LOCAL DE EDUCACI?ÙN,PERSONA JUR?ÏDICA,15,151,ARICA,151,ARICA,15101,ARICA,JUAN NOE,555,SECTOR CENTRO,-18.4769,-70.313454,894,0,246,0,0,549,99,0,0,481,413,0,840,52,2,171,723,0,29,0
2020,7,8,L. POLI. ANTONIO VARAS DE LA BARRA,SERVICIO LOCAL DE EDUCACI?ÙN,PERSONA JUR?ÏDICA,15,151,ARICA,151,ARICA,15101,ARICA,AVENIDA LOA,2200, POBL. CHILE,-18.476151,-70.288368,1127,0,0,0,0,0,0,1127,0,678,449,0,969,158,0,347,780,0,40,0
2020,8,6,COLEGIO INTEGRADO EDUARDO FREI MONTALVA,SERVICIO LOCAL DE EDUCACI?ÙN,PERSONA JUR?ÏDICA,15,151,ARICA,151,ARICA,15101,ARICA,SAN MARCOS,611,ESQUINA GENERAL LAGOS,-18.482491,-70.317581,625,61,288,0,0,276,0,0,0,345,280,0,485,140,0,71,554,0,22,0
2020,9,4,ESCUELA REPUBLICA DE ISRAEL,SERVICIO LOCAL DE EDUCACI?ÙN,PERSONA JUR?ÏDICA,15,151,ARICA,151,ARICA,15101,ARICA,MAGALLANES,1860,ENTRE SIM?ÙN BOL?ÏVAR Y BORGO?ÊO  POBLACI?ÙN MAGISTERIO,-18.486691,-70.30452,1472,198,1274,0,0,0,0,0,0,770,702,0,1455,17,0,168,1304,0,41,0
2020,10,8,ESCUELA REPUBLICA DE FRANCIA,SERVICIO LOCAL DE EDUCACI?ÙN,PERSONA JUR?ÏDICA,15,151,ARICA,151,ARICA,15101,ARICA,MARIA ILIA DEL PINO,728,INTERSECCI?ÙN DE CALLE SANTA MAR?ÏA CON MAR?ÏA ILIA DEL PINO A UN COSTADO LICEO A-1 DETR?¸S DE LA ESCUELA D-14,-18.474369,-70.309036,192,25,167,0,0,0,0,0,0,0,192,0,133,59,0,18,174,0,8,1
2020,11,6,ESC. GRAL. PEDRO LAGOS MARCHANT,SERVICIO LOCAL DE EDUCACI?ÙN,PERSONA JUR?ÏDICA,15,151,ARICA,151,ARICA,15101,ARICA,AVENIDA R SOTOMAYOR,1639,EN EL CERRO LA CRUZ,-18.491011,-70.311577,347,42,305,0,0,0,0,0,0,198,149,0,318,29,0,63,282,2,14,0
2020,12,4,ESCUELA GRAL JOSE MIGUEL CARRERA,SERVICIO LOCAL DE EDUCACI?ÙN,PERSONA JUR?ÏDICA,15,151,ARICA,151,ARICA,15101,ARICA,OSCAR BELMAR,230,COSTADO GIMNASIO UTA,-18.49193,-70.293968,327,48,279,0,0,0,0,0,0,177,150,0,313,14,0,70,257,0,11,0
2020,13,2,ESCUELA MANUEL RODRIGUEZ ERDOYZA,SERVICIO LOCAL DE EDUCACI?ÙN,PERSONA JUR?ÏDICA,15,151,ARICA,151,ARICA,15101,ARICA,BALMACEDA,2450,,-18.48134,-70.285347,280,47,233,0,0,0,0,0,0,159,121,0,247,33,0,90,189,1,10,0
2020,14,0,ESCUELA ROMULO J. PENA MATURANA,SERVICIO LOCAL DE EDUCACI?ÙN,PERSONA JUR?ÏDICA,15,151,ARICA,151,ARICA,15101,ARICA,LAS ACACIAS,2283,CALLE LAS ACACIAS CASI ESQUINA CALLE LAS BRISAS. POBLACI?ÙN OLIVARERA.,-18.481239,-70.289757,349,64,285,0,0,0,0,0,0,195,154,0,181,168,0,109,240,0,10,0
2020,15,9,LICEO ARTISTICO DR. JUAN NOE CREVANI,SERVICIO LOCAL DE EDUCACI?ÙN,PERSONA JUR?ÏDICA,15,151,ARICA,151,ARICA,15101,ARICA,BARROS ARANA,2154,SE UBICA EN LA POBLACION JUAN NO?Í FRENTE A LA PLAZA BONILLA.,-18.47138596,-70.300354,395,0,268,0,0,127,0,0,0,178,217,0,382,13,0,78,317,0,12,0
2020,16,7,ESCUELA REGIMIENTO RANCAGUA,SERVICIO LOCAL DE EDUCACI?ÙN,PERSONA JUR?ÏDICA,15,151,ARICA,151,ARICA,15101,ARICA,AVENIDA SANTA MARIA,1550,"SANTA MARIA, ESQUINA MARIA ILIA DEL PINO.",-18.474831,-70.308777,311,57,254,0,0,0,0,0,0,200,111,0,223,88,0,40,271,0,10,0
2020,17,5,ESCUELA SUBTTE. LUIS CRUZ MARTINEZ,SERVICIO LOCAL DE EDUCACI?ÙN,PERSONA JUR?ÏDICA,15,151,ARICA,151,ARICA,15101,ARICA,PASAJE REAL ARMADA,1459,"CHAPIQUI?ÊA PASADO BILBAO, HACIA EL OESTE, POBLACION EDUARDO FREI MONTALVA,",-18.46727,-70.290939,413,80,333,0,0,0,0,0,0,209,204,0,349,64,0,52,361,0,14,0
2020,18,3,ESC. COMTE. JUAN JOSE SAN MARTIN,SERVICIO LOCAL DE EDUCACI?ÙN,PERSONA JUR?ÏDICA,15,151,ARICA,151,ARICA,15101,ARICA,ANGEL BRASS,2545,"ANGEL BRASS CON AVENIDA LOA, POBLACION CHILE.",-18.476681,-70.287788,329,41,288,0,0,0,0,0,0,194,135,0,292,37,0,111,218,0,14,0
2020,19,1,ESC. HUMBERTO VALENZUELA GARCIA,SERVICIO LOCAL DE EDUCACI?ÙN,PERSONA JUR?ÏDICA,15,151,ARICA,151,ARICA,15101,ARICA,CODPA,2300,ENTRE LAS CALLES DE LOA Y GONZALO CERDA,-18.474661,-70.291908,304,54,250,0,0,0,0,0,0,169,135,0,265,39,0,52,252,0,10,0
2020,20,5,ESCUELA TUCAPEL,SERVICIO LOCAL DE EDUCACI?ÙN,PERSONA JUR?ÏDICA,15,151,ARICA,151,ARICA,15101,ARICA,AVENIDA TUCAPEL,2075,AVDA. TUCAPEL 2075 POBLACI?ÙN SAN JOS?Î,-18.4797,-70.295502,442,59,383,0,0,0,0,0,0,251,191,0,371,71,0,121,321,0,19,0
2020,22,1,ESCUELA GABRIELA MISTRAL,SERVICIO LOCAL DE EDUCACI?ÙN,PERSONA JUR?ÏDICA,15,151,ARICA,151,ARICA,15101,ARICA,AVENIDA LA CONCEPCION,3580,CUADRANTE AVDA. CANCHA RAYADA POR EL SURLAGUNILLAS POR ORIENTE PSJE. JOTABECHE POR EL PONIENTE Y AVDA LA CONCEPCI?ÙN POR EL NORTE,-18.44829,-70.290649,962,167,795,0,0,0,0,0,0,524,438,0,915,47,0,107,854,1,31,0
2020,25,6,COLEGIO CENTENARIO DE ARICA,SERVICIO LOCAL DE EDUCACI?ÙN,PERSONA JUR?ÏDICA,15,151,ARICA,151,ARICA,15101,ARICA,EL ROBLE,4016,"POBL.CARDENAL RAUL SILVA HENRIQUEZ, UBICADA FRENTE AL CONJUNTO HABITACIONAL PUCARANI.",-18.440001,-70.293381,701,76,467,0,0,158,0,0,0,385,316,0,632,69,0,148,552,1,26,0
2020,26,4,ESCUELA REPUBLICA DE ARGENTINA,SERVICIO LOCAL DE EDUCACI?ÙN,PERSONA JUR?ÏDICA,15,151,ARICA,151,ARICA,15101,ARICA,ROMULO PE?ÊA,1275,"FRENTE ESTADIO CANADELA, FRENTE CORFAL, ESQUINA CALLE AZOLAS",-18.48361,-70.300591,250,39,211,0,0,0,0,0,0,131,119,0,212,38,0,49,201,0,10,0
2020,27,2,ESCUELA ESMERALDA,SERVICIO LOCAL DE EDUCACI?ÙN,PERSONA JUR?ÏDICA,15,151,ARICA,151,ARICA,15101,ARICA,JOSE JOAQUIN VALLEJOS,106,CENTRO DE LA POBLACI?ÙN O`HIGGINS ENTRE 18 SEPTIEMBRE Y CALLE JUAN NO?Î.,-18.483049,-70.308029,308,39,269,0,0,0,0,0,0,194,114,0,237,71,0,48,259,1,8,1
2020,28,0,ESCUELA RICARDO SILVA ARRIAGADA,SERVICIO LOCAL DE EDUCACI?ÙN,PERSONA JUR?ÏDICA,15,151,ARICA,151,ARICA,15101,ARICA,ABRAHAM MEDINA,1760,DETR?¸S DEL LICEO POLIT?ÎCNICO A-2.,-18.485069,-70.294403,793,62,409,49,0,0,273,0,0,418,375,0,691,98,4,233,558,2,27,0
2020,29,9,ESCUELA AMERICA,SERVICIO LOCAL DE EDUCACI?ÙN,PERSONA JUR?ÏDICA,15,151,ARICA,151,ARICA,15101,ARICA,AVENIDA CAPITAN AVALOS,2606,ENTRE CALLE LOA Y ESTEBAN RIOS.,-18.47761,-70.28302,494,77,417,0,0,0,0,0,0,269,225,0,387,107,0,160,332,2,20,0
2020,30,2,ESCUELA DR. RICARDO OLEA GUERRA,SERVICIO LOCAL DE EDUCACI?ÙN,PERSONA JUR?ÏDICA,15,151,ARICA,151,ARICA,15101,ARICA,AVENIDA JOSE MANUEL BALMACEDA,2480,AVENIDA JOS?Î MANUEL BALMACEDA N?? 2480 POBLACI?ÙN LAS BRISAS  CON CALLE RODRIGO DE ARAYA.,-18.48061752,-70.28401184,156,0,0,0,156,0,0,0,0,93,63,0,138,18,0,46,109,1,6,0
2020,31,0,ESCUELA DARIO SALAS DIAZ,SERVICIO LOCAL DE EDUCACI?ÙN,PERSONA JUR?ÏDICA,15,151,ARICA,151,ARICA,15101,ARICA,CAMINO FISCAL AZAPA,3.6,"SE ENCUENTRA UBICADA EN EL KM 3,6 DEL VALLE DE AZAPA.",-18.50066,-70.254593,415,76,339,0,0,0,0,0,0,209,206,0,273,142,0,327,86,2,12,0
2020,32,9,LICEO AGRICOLA JOSE ABELARDO NUNEZ M.,SERVICIO LOCAL DE EDUCACI?ÙN,PERSONA JUR?ÏDICA,15,151,ARICA,151,ARICA,15101,ARICA,SAN MIGUEL - AZAPA,12,"KM. 12 SAN MIGUEL - AZAPA, CAMINO FISCAL FRENTE A LA FACULTAD DE AGRONOM?ÓA DE LA UTA.",-18.51926,-70.178741,756,128,499,0,0,0,0,129,0,411,345,0,438,318,0,457,297,2,24,0
2020,33,7,ESCUELA CARLOS CONDELL DE LA HAZA,SERVICIO LOCAL DE EDUCACI?ÙN,PERSONA JUR?ÏDICA,15,151,ARICA,151,ARICA,15101,ARICA,VALLE DE LLUTA,18,"SECTOR `EL MORRO` S/N- KM 18, VALLE DE LLUTA",-18.41711,-70.225853,197,35,162,0,0,0,0,0,0,101,96,0,161,36,0,132,64,1,10,0
2020,35,3,ESCUELA GRAL. MANUEL BAQUEDANO,SERVICIO LOCAL DE EDUCACI?ÙN,PERSONA JUR?ÏDICA,15,151,ARICA,151,ARICA,15101,ARICA,VALLE DE LLUTA,27,VALLE DE LLUTA KM 27,-18.451719,-70.067574,110,32,78,0,0,0,0,0,0,56,54,0,59,51,0,61,48,1,0,4
2020,36,1,ESCUELA IGNACIO CARRERA PINTO,SERVICIO LOCAL DE EDUCACI?ÙN,PERSONA JUR?ÏDICA,15,151,ARICA,151,ARICA,15101,ARICA,EL PEDREGAL,3680,"POBLACION NUEVA ESPERANZA., DETR?¸S DE LOS TERMINALES ASOAGRO Y ASOCAPEC.  FRENTE AL LECHO DEL R?ÏO SAN JOS?Î",-18.4956,-70.283524,289,46,243,0,0,0,0,0,0,150,139,0,200,89,0,129,160,0,10,0
2020,38,8,ESCUELA ESPA?ÊA,SERVICIO LOCAL DE EDUCACI?ÙN,PERSONA JUR?ÏDICA,15,151,ARICA,151,ARICA,15101,ARICA,VALLE DE AZAPA,28,VALLE DE AZAPA KM 28 S/N,-18.558821,-70.100723,504,76,428,0,0,0,0,0,0,269,235,0,400,104,0,456,46,2,17,0
2020,39,6,ESCUELA PAMPA ALGODONAL,SERVICIO LOCAL DE EDUCACI?ÙN,PERSONA JUR?ÏDICA,15,151,ARICA,151,ARICA,15101,ARICA,PAMPA ALGODONAL,45,VALLE DE AZAPA.KM 45   ARICA,-18.578211,-69.965172,70,7,63,0,0,0,0,0,0,36,34,0,17,53,0,36,34,0,1,3
2020,41,8,ESCUELA VALLE DE CHACA,SERVICIO LOCAL DE EDUCACI?ÙN,PERSONA JUR?ÏDICA,15,151,ARICA,151,ARICA,15101,ARICA,PANAMERICANA SUR,50,"PANAMERICANA SUR KM 50 CAMINO A LA CIUDAD DE IQUIQUE, FRENTE AL CRUCE DE CALETA VITOR",-18.820641,-70.140381,43,0,43,0,0,0,0,0,0,16,27,0,18,25,0,26,17,0,0,1
2020,42,6,ESCUELA MOLINOS LLUTA,SERVICIO LOCAL DE EDUCACI?ÙN,PERSONA JUR?ÏDICA,15,151,ARICA,151,ARICA,15101,ARICA,RUTA CH-11,55,KILOMETRO N?? 55 RUTA CH 11 VALLE DE LLUTA.,-18.38175,-69.944893,18,0,18,0,0,0,0,0,0,8,10,0,9,9,0,11,7,0,6,0
2020,43,4,JARDIN INFANTIL CEPILLIN,PARTICULAR SUBVENCIONADO,PERSONA JUR?ÏDICA,15,151,ARICA,151,ARICA,15101,ARICA,CALLE CURALI,866,CURALI ESUINA CANCHA RAYADA,-18.439636,-70.290726,27,27,0,0,0,0,0,0,0,17,10,0,27,0,0,3,16,8,2,0
2020,45,0,COLEGIO ITALIANO SANTA ANA,PARTICULAR SUBVENCIONADO,PERSONA JUR?ÏDICA,15,151,ARICA,151,ARICA,15101,ARICA,AVENIDA 21 DE MAYO,920,SOTOMAYOR CON ARTURO GALLO.,-18.483061,-70.314301,969,117,565,0,0,287,0,0,0,0,969,0,919,50,0,77,892,0,28,0
2020,47,7,J.  I. KURUMI,PARTICULAR PAGADO (O NO SUBVENCIONADO),SIN INFORMACI?ÙN,15,151,ARICA,151,ARICA,15101,ARICA,LUIS CRIGNOLA,2316,,-18.492444,-70.2944415,0,0,0,0,0,0,0,0,0,0,0,0,0,0,0,0,0,0,0,0
2020,49,3,JARDIN INFANTIL PADRE LUIS GALLARDO,PARTICULAR SUBVENCIONADO,PERSONA JUR?ÏDICA,15,151,ARICA,151,ARICA,15101,ARICA,AVENIDA TUCAPEL,2540,TUCAPEL CON LOA,-18.475018,-70.29024,29,29,0,0,0,0,0,0,0,17,12,0,26,3,0,11,16,2,0,2
2020,50,7,COLEGIO ADVENTISTA DE ARICA,PARTICULAR SUBVENCIONADO,PERSONA JUR?ÏDICA,15,151,ARICA,151,ARICA,15101,ARICA,AIDA,5501,VALLE DE AZAPA KM.  2?¢  VALLE DE AZAPA,-18.49332,-70.270767,581,0,361,0,0,220,0,0,0,278,303,0,555,26,0,158,423,0,13,0
2020,52,3,LICEO BICENTENARIO DOMINGO SANTA MARIA,PARTICULAR SUBVENCIONADO,PERSONA JUR?ÏDICA,15,151,ARICA,151,ARICA,15101,ARICA,SANTA MARIA,2189,SANTA MAR?ÏA FRENTE DE INACAP,-18.46834,-70.303596,3982,374,1880,0,51,1197,0,480,0,1997,1985,0,3614,367,1,520,3439,23,94,0
2020,55,8,JARDIN INFANTIL MONTESSORI GARDEN,PARTICULAR SUBVENCIONADO,PERSONA JUR?ÏDICA,15,151,ARICA,151,ARICA,15101,ARICA,CALLE MICHIMALONGO,1286,ENTRE AZOLA Y PASAJE CURICO,-18.48422,-70.30817,0,0,0,0,0,0,0,0,0,0,0,0,0,0,0,0,0,0,0,0
2020,56,6,COLEGIO SAN MARCOS DE ARICA,PARTICULAR SUBVENCIONADO,PERSONA JUR?ÏDICA,15,151,ARICA,151,ARICA,15101,ARICA,AVENIDA SANTA MARIA,2140,FRENTE AL SUPER AGRO SANTA MARIA,-18.470751,-70.304817,990,52,630,0,0,308,0,0,0,490,500,0,981,9,0,59,931,0,26,0
2020,58,2,JARDIN INFANTIL PETETE J.M. BORGO?…O,PARTICULAR SUBVENCIONADO,PERSONA JUR?ÏDICA,15,151,ARICA,151,ARICA,15101,ARICA,JOSE MANUEL BORGO?ÊO,361,UBICADO EN LA POBLACI?ÙN MAGISTERIO,-18.486109,-70.302956,17,17,0,0,0,0,0,0,0,9,8,0,16,1,0,0,17,0,4,0
2020,59,0,COLEGIO SAN JORGE,PARTICULAR PAGADO (O NO SUBVENCIONADO),PERSONA NATURAL,15,151,ARICA,151,ARICA,15101,ARICA,CAMINO AZAPA,2.5,"CAMINO AZAPA KM 2,5",-18.50215,-70.24618,437,40,259,0,0,138,0,0,0,218,219,0,434,3,0,15,422,0,27,0
2020,60,4,COLEGIO ALEMAN DE ARICA,PARTICULAR SUBVENCIONADO,PERSONA JUR?ÏDICA,15,151,ARICA,151,ARICA,15101,ARICA,AVENIDA SENADOR HUMBERTO PALZA,3727,"ENTRADA VALLE DE AZAPA KM 1,5",-18.49221,-70.280296,1015,137,548,0,0,330,0,0,0,501,514,0,973,42,0,121,894,0,27,0
2020,66,3,JARDIN INFANTIL PLUTO,PARTICULAR SUBVENCIONADO,PERSONA JUR?ÏDICA,15,151,ARICA,151,ARICA,15101,ARICA,ROMULO PENA,1338,"FRENTE ESTADIO DE LIGA DE EMPLEADOS,ENTRE CALLE AZOLA Y P.AGUIRRE CERDA",-18.479057,-70.3034,15,15,0,0,0,0,0,0,0,10,5,0,15,0,0,6,4,5,2,1
2020,67,1,ABRAHAM LINCOLN SCHOOL,PARTICULAR SUBVENCIONADO,PERSONA JUR?ÏDICA,15,151,ARICA,151,ARICA,15101,ARICA,SAN MARTIN,471,SAN MARTIN 471   (ENTRE 18 DE SEPTIEMBRE Y 21 DE MAYO),-18.48123,-70.318787,765,50,560,0,0,155,0,0,0,384,381,0,762,3,0,79,686,0,22,0
2020,69,8,JUNIOR COLLEGE,PARTICULAR PAGADO (O NO SUBVENCIONADO),PERSONA NATURAL,15,151,ARICA,151,ARICA,15101,ARICA,RENATO ROCCA,1261,,-18.463913,-70.29144,777,86,512,0,0,179,0,0,0,364,413,0,773,4,0,29,748,0,36,0
2020,70,1,ESCUELA VALLE DE ESQUINA,SERVICIO LOCAL DE EDUCACI?ÙN,PERSONA JUR?ÏDICA,15,151,ARICA,151,ARICA,15102,CAMARONES,PUEBLO DE ESQUI?ÊA,0,145 KIL?ÙMETROS AL ESTE DE LA CIUDAD DE ARICA,-18.93622,-69.530159,8,0,8,0,0,0,0,0,0,5,3,0,1,7,0,3,5,0,0,1
2020,72,8,LICEO VALLE DE CODPA,SERVICIO LOCAL DE EDUCACI?ÙN,PERSONA JUR?ÏDICA,15,151,ARICA,151,ARICA,15102,CAMARONES,CALLE 7 DE JUNIO,0,"S/N, CODPA - 115 KIL?ÙMETROS DE LA CIUDAD DE ARICA",-18.832899,-69.744583,70,0,47,0,0,0,0,23,0,50,20,0,24,46,0,28,42,0,8,1
2020,73,6,ESCUELA VALLE DE COBIJA,SERVICIO LOCAL DE EDUCACI?ÙN,PERSONA JUR?ÏDICA,15,151,ARICA,151,ARICA,15102,CAMARONES,CALLE 18 SEPTIEMBRE,634,S/N  PUEBLO DE COBIJA - 130 KIL?ÙMETROS A LA CIUDAD M?¸S CERCANA (ARICA),-18.739889,-69.583237,2,0,2,0,0,0,0,0,0,1,1,0,1,1,0,2,0,0,1,0
2020,74,4,ESCUELA VALLE DE CAMARONES,SERVICIO LOCAL DE EDUCACI?ÙN,PERSONA JUR?ÏDICA,15,151,ARICA,151,ARICA,15102,CAMARONES,POBLADO DE CAMARONES,0,RUTA A-5 NORTE - POBLADO DE CAMARONES A 132 KMS APROX. AL SURESTE DE LA CIUDAD DE ARICA.,-19.00992,-69.860138,14,0,14,0,0,0,0,0,0,8,6,0,10,4,0,10,4,0,1,1
2020,75,2,ESCUELA VALLE DE GUANACAGUA,SERVICIO LOCAL DE EDUCACI?ÙN,PERSONA JUR?ÏDICA,15,151,ARICA,151,ARICA,15102,CAMARONES,CAMINO RURAL,0,121 KM DE LA CIUDAD DE ARICA,-18.81953,-69.709549,4,0,4,0,0,0,0,0,0,4,0,0,3,1,0,3,1,0,0,1
2020,76,0,ESCUELA VALLE DE CUYA,SERVICIO LOCAL DE EDUCACI?ÙN,PERSONA JUR?ÏDICA,15,151,ARICA,151,ARICA,15102,CAMARONES,AVANZADA DE CUYA,0,114 KIL?ÙMETROS AL SUR DE LA CIUDAD DE ARICA,-19.16044,-70.179573,5,0,5,0,0,0,0,0,0,4,1,0,5,0,0,2,3,0,3,1
2020,78,7,LICEO GRANADEROS,SERVICIO LOCAL DE EDUCACI?ÙN,PERSONA JUR?ÏDICA,15,152,PARINACOTA,151,ARICA,15201,PUTRE,TTE DEL CAMPO,242,"A UN COSTADO DEL REGIMIENTO HUAMACHUCO, PUEBLO DE PUTRE",-18.19582,-69.561928,217,31,125,0,0,0,0,61,0,126,91,0,147,70,0,151,64,2,12,1
2020,79,5,ESCUELA EL MARQUEZ,SERVICIO LOCAL DE EDUCACI?ÙN,PERSONA JUR?ÏDICA,15,152,PARINACOTA,151,ARICA,15201,PUTRE,O'HIGGINS,40,,-18.580721,-69.493759,10,0,10,0,0,0,0,0,0,5,5,0,6,4,0,8,2,0,0,1
2020,81,7,ESCUELA PAYACHATAS,SERVICIO LOCAL DE EDUCACI?ÙN,PERSONA JUR?ÏDICA,15,152,PARINACOTA,151,ARICA,15201,PUTRE,ARTURO PRAT,4,"CORDILLERA, PUEBLO DE CAQUENA",-18.054399,-69.201012,5,0,5,0,0,0,0,0,0,4,1,0,4,1,0,5,0,0,0,1
2020,82,5,ESCUELA SAN FRANCISCO DE ASIS,SERVICIO LOCAL DE EDUCACI?ÙN,PERSONA JUR?ÏDICA,15,152,PARINACOTA,151,ARICA,15201,PUTRE,SAN FRANCISCO,0,"S/N FRENTE A LA PLAZA PUBLICA PUEBLO DE SOCOROMA EN LA PROVINCIA DE PARINACOTA, A 125 KM DE ARICA.",-18.26881,-69.597023,1,0,1,0,0,0,0,0,0,1,0,0,0,1,0,0,1,0,0,1
2020,83,3,ESCUELA COTA COTANI,SERVICIO LOCAL DE EDUCACI?ÙN,PERSONA JUR?ÏDICA,15,152,PARINACOTA,151,ARICA,15201,PUTRE,PARINACOTA,0,PUEBLO DE PARINACOTA EN LA PROVINCIA DE PARINACOTA A 30 KM DE LA CAPITAL PUTRE A 4.430 METROS SOBRE EL NIVEL DEL MAR,-18.200001,-69.266701,5,0,5,0,0,0,0,0,0,2,3,0,3,2,0,5,0,0,0,1
2020,84,1,ESCUELA LOS ALAMOS,SERVICIO LOCAL DE EDUCACI?ÙN,PERSONA JUR?ÏDICA,15,152,PARINACOTA,151,ARICA,15201,PUTRE,MURMUNTANI,0,LA ESCUELA SE UBICA EN LA PRECORDILLERA DE LA COMUNA DE PUTRE A 117 KIL?ÙMETROS DE LA CIUDAD DE ARICA. 02 HORAS EN VEH?ÏCULO POR CARRETERA ASFALTADA `RUTA 11CH`.,-18.19635,-69.559219,2,0,2,0,0,0,0,0,0,2,0,0,1,1,0,2,0,0,1,1
2020,86,8,ESCUELA SAN SANTIAGO DE BELEN,SERVICIO LOCAL DE EDUCACI?ÙN,PERSONA JUR?ÏDICA,15,152,PARINACOTA,151,ARICA,15201,PUTRE,EL PERAL,0,PRECORDILLERA,-18.467779,-69.514893,9,0,9,0,0,0,0,0,0,3,6,0,8,1,0,6,3,0,5,0
2020,87,6,ESCUELA ANCOLACANE,SERVICIO LOCAL DE EDUCACI?ÙN,PERSONA JUR?ÏDICA,15,152,PARINACOTA,151,ARICA,15202,GENERAL LAGOS,LOCALIDAD DE ANCOLACANE,0,"JUAN NOE N?? 417, ARICA",-17.854719,-69.606133,3,0,3,0,0,0,0,0,0,1,2,0,3,0,0,3,0,0,0,1
2020,88,4,ESCUELA ALCERRECA,SERVICIO LOCAL DE EDUCACI?ÙN,PERSONA JUR?ÏDICA,15,152,PARINACOTA,151,ARICA,15202,GENERAL LAGOS,LOCALIDAD DE ALCERRECA,0,"CORONEL ALCERRECA, COMUNA DE GENERAL LAGOS, REGION XV DE ARICA Y PARINACOTA",-17.994341,-69.705887,2,0,2,0,0,0,0,0,0,0,2,0,2,0,0,2,0,0,0,1
2020,89,2,ESCUELA HUMAPALCA,SERVICIO LOCAL DE EDUCACI?ÙN,PERSONA JUR?ÏDICA,15,152,PARINACOTA,151,ARICA,15202,GENERAL LAGOS,LOCALIDAD DE HUMAPALCA,0,"LOCALIDAD DE HUMAPALCA, COMUNA DE GENERAL LAGOS, REGION XV DE ARICA Y PARINACOTA",-17.834391,-69.702782,1,0,1,0,0,0,0,0,0,1,0,0,1,0,0,1,0,0,0,1
2020,90,6,ESCUELA INTERNADO VISVIRI,SERVICIO LOCAL DE EDUCACI?ÙN,PERSONA JUR?ÏDICA,15,152,PARINACOTA,151,ARICA,15202,GENERAL LAGOS,VISVIRI,0,"LOCALIDAD DE VISVRI, COMUNA DE GENERAL LAGOS, REGIONA XV DE ARICA Y PARINACOTA",-17.594879,-69.481163,29,0,29,0,0,0,0,0,0,13,16,0,11,18,0,19,9,1,2,2
2020,91,4,ESCUELA COSAPILLA,SERVICIO LOCAL DE EDUCACI?ÙN,PERSONA JUR?ÏDICA,15,152,PARINACOTA,151,ARICA,15202,GENERAL LAGOS,LOCALIDAD DE COSAPILLA,0,"LOCALIDAD DE COSAPILLA, COMUNA DE GENERAL LAGOS, REGION XV DE ARICA Y PARINACOTA.",-17.76635,-69.421242,1,0,1,0,0,0,0,0,0,1,0,0,1,0,0,1,0,0,1,0
2020,92,2,ESCUELA CHISLLUMA,SERVICIO LOCAL DE EDUCACI?ÙN,PERSONA JUR?ÏDICA,15,152,PARINACOTA,151,ARICA,15202,GENERAL LAGOS,LOCALIDAD DE CHISLLUMA,0,"LOCALIDAD DE CHISLLUMA, COMUNA DE GENERAL LAGOS, REGION XV DE ARICA Y PARINACOTA",-17.69677,-69.688301,3,0,3,0,0,0,0,0,0,2,1,0,1,2,0,1,2,0,0,1
2020,93,0,ESCUELA CHUJLLUTA,SERVICIO LOCAL DE EDUCACI?ÙN,PERSONA JUR?ÏDICA,15,152,PARINACOTA,151,ARICA,15202,GENERAL LAGOS,RUTA A-123,0,"LOCALIDAD DE CHUJLLUTA, COMUNA DE GENERAL LAGOS, REGION XV DE ARICA Y PARINACOTA.  1ER PUEBLO COMUNA DE GENERAL LAGOS, (CAMINO  A VISVIRI)",-17.89942,-69.349213,7,0,7,0,0,0,0,0,0,5,2,0,4,3,0,5,2,0,0,1
2020,94,9,ESCUELA GUACOYO,SERVICIO LOCAL DE EDUCACI?ÙN,PERSONA JUR?ÏDICA,15,152,PARINACOTA,151,ARICA,15202,GENERAL LAGOS,LOCALIDAD DE GUACOYO,0,"PUEBLO DE GUACOYO S/N, COMUNA DE GENERAL LAGOS, REGION XV DE ARICA Y PARINACOTA",-17.76013,-69.344948,8,0,8,0,0,0,0,0,0,6,2,0,5,3,0,8,0,0,1,1
2020,95,7,ESCUELA COLPITAS,SERVICIO LOCAL DE EDUCACI?ÙN,PERSONA JUR?ÏDICA,15,152,PARINACOTA,151,ARICA,15202,GENERAL LAGOS,LOCALIDAD DE COLPITAS,0,"LOCALIDAD DE COLPITAS, COMUNA DE GENERAL LAGOS, REGION DE ARICA Y PARINACOTA",-17.95694,-69.453629,2,0,2,0,0,0,0,0,0,0,2,0,2,0,0,2,0,0,2,0
2020,97,3,INST. COM. DE IQUIQUE BALDOMERO WOLNITZKY,MUNICIPAL,PERSONA JUR?ÏDICA,1,11,IQUIQUE,11,IQUIQUE,1101,IQUIQUE,ANIBAL PINTO,1255,ORELLA CON ANIBAL PINTO,-20.220369,-70.153061,332,0,0,0,0,0,0,332,0,162,170,0,195,137,0,38,294,0,15,0
2020,102,3,ESC.EDUC.ESPECIAL FLOR DEL INCA,MUNICIPAL,PERSONA JUR?ÏDICA,1,11,IQUIQUE,11,IQUIQUE,1101,IQUIQUE,PEDRO AGUIRRE CERDA,2098,"PEDRO AGUIRRE CERDA N?? 2098, ENTRE MARISCAL CASTILLA Y PEDRO GONZ?¸LEZ",-20.24097252,-70.13935089,92,0,0,0,92,0,0,0,0,58,34,0,82,10,0,12,80,0,3,0
2020,103,1,ESC.EDUC.GRAL.BAS.Y DES.ART.VIOLETA PARRA,MUNICIPAL,PERSONA JUR?ÏDICA,1,11,IQUIQUE,11,IQUIQUE,1101,IQUIQUE,ORELLA,1820,ENTRE LAS CALLES LUIS CRUZ MARTINEZ Y ARTURO PEREZ CANTO SECTOR POBLACIONAL BUEN PASTOR,-20.22109604,-70.13816833,499,0,336,0,0,163,0,0,0,208,291,0,473,26,0,26,473,0,17,0
2020,105,8,CENTRO DE CAPACITACION LABORAL,MUNICIPAL,PERSONA JUR?ÏDICA,1,11,IQUIQUE,11,IQUIQUE,1101,IQUIQUE,JOSE FRANCISCO VERGARA,2877,SECTOR PLAYA BRAVA ENTRE TADEO HAENKE Y ANKER NIELSEN,-20.24172211,-70.13650513,80,0,0,0,80,0,0,0,0,58,22,0,72,8,0,13,67,0,4,0
2020,106,6,INSTITUTO DEL MAR ALMIRANTE CARLOS CONDEL,CORPORACI?ÙN DE ADMINISTRACI?ÙN DELEGADA (DL 3166),PERSONA JUR?ÏDICA,1,11,IQUIQUE,11,IQUIQUE,1101,IQUIQUE,AVENIDA ARTURO PRAT,0,BAJO MOLLE KILOMETRO 10,-20.293949,-70.127777,489,0,52,0,0,241,0,196,0,345,144,0,344,145,0,49,440,0,18,0
2020,107,4,LICEO LIBERT. GRAL.BERNARDO O??HIGGINS,MUNICIPAL,PERSONA JUR?ÏDICA,1,11,IQUIQUE,11,IQUIQUE,1101,IQUIQUE,BAQUEDANO,1200,"AVENIDA BAQUEDANO PARALELA A LITORAL NORTE DE IQUIQUE ENTRE CALLES BULNES Y ORELLA , AMBAS DE ESTE A OSTE.",-20.21981,-70.153313,468,0,80,0,0,388,0,0,0,241,227,0,236,232,0,55,413,0,19,0
2020,108,2,LICEO POLITEC. JOSE GUTIERREZ DE LA FUEN,MUNICIPAL,PERSONA JUR?ÏDICA,1,11,IQUIQUE,11,IQUIQUE,1101,IQUIQUE,AVENIDA ARTURO PRAT,0,AVENIDA ARTURO PRAT ESQUINA  LIBERTAD Y  VIVAR.,-20.2258,-70.148727,481,0,0,0,0,0,0,481,0,268,213,0,315,166,0,52,428,1,21,0
2020,109,0,COLEGIO DEPORTIVO TEC. PROF. ELENA DUVAUCHELLE CABEZON,MUNICIPAL,PERSONA JUR?ÏDICA,1,11,IQUIQUE,11,IQUIQUE,1101,IQUIQUE,ANIBAL PINTO,955,ANIBAL PINTO ENTRE ZEGERS Y GRUMETE BOLADOS,-20.216949,-70.153381,655,0,260,0,0,133,0,262,0,362,293,0,407,248,0,37,618,0,24,0
2020,110,4,LICEO BICENTENARIO DOMINGO SANTA MARIA DE IQQ.,MUNICIPAL,PERSONA JUR?ÏDICA,1,11,IQUIQUE,11,IQUIQUE,1101,IQUIQUE,ZEGERS,818,FRENTE AL MERCADO CENTRAL.,-20.21759,-70.146912,961,135,560,0,0,266,0,0,0,507,454,0,787,174,0,74,887,0,28,0
2020,111,2,ESCUELA GABRIELA MISTRAL,MUNICIPAL,PERSONA JUR?ÏDICA,1,11,IQUIQUE,11,IQUIQUE,1101,IQUIQUE,LIBERTAD,1525,ENTRE CALLES OSCAR BONILLA Y 12 DE FEBRERO.,-20.22576,-70.141502,664,140,524,0,0,0,0,0,0,354,310,0,504,160,0,59,603,2,19,0
2020,112,0,ESCUELA EDUARDO LLANOS,MUNICIPAL,PERSONA JUR?ÏDICA,1,11,IQUIQUE,11,IQUIQUE,1101,IQUIQUE,GENARO GALLO,527,"ENTRE SERRANO Y THOMPSON, DETR?¸S DEL HOSPITAL REGIONAL.",-20.214479,-70.135857,687,121,566,0,0,0,0,0,0,370,317,0,536,151,0,34,653,0,20,0
2020,113,9,ESCUELA ALMIRANTE PATRICIO LYNCH,MUNICIPAL,PERSONA JUR?ÏDICA,1,11,IQUIQUE,11,IQUIQUE,1101,IQUIQUE,GENARO GALLO,2408,CON QUINTA SUR,-20.23204,-70.137703,917,137,780,0,0,0,0,0,0,522,395,0,504,413,0,73,843,1,28,0
2020,114,7,ESCUELA PLACIDO VILLARROEL,MUNICIPAL,PERSONA JUR?ÏDICA,1,11,IQUIQUE,11,IQUIQUE,1101,IQUIQUE,ARTURO FERNANDEZ,1260,BULNES CON ORELLA CENTRO,-20.22024,-70.144112,534,64,470,0,0,0,0,0,0,285,249,0,270,264,0,38,496,0,17,0
2020,116,3,COLEGIO REPUBLICA DE CROACIA,MUNICIPAL,PERSONA JUR?ÏDICA,1,11,IQUIQUE,11,IQUIQUE,1101,IQUIQUE,AVENIDA SALVADOR ALLENDE,1890,AVENIDA SALVADOR ALLENDE CON TOMAS BONILLA,-20.22728,-70.13485,685,133,552,0,0,0,0,0,0,343,342,0,329,356,0,117,568,0,20,0
2020,117,1,ESCUELA PAULA JARAQUEMADA ALQUIZAR,MUNICIPAL,PERSONA JUR?ÏDICA,1,11,IQUIQUE,11,IQUIQUE,1101,IQUIQUE,ORELLA,960,ENTRE CALLES JUAN MART?ÏNEZ Y AMUNATEGUI.,-20.2204,-70.146248,699,103,543,0,53,0,0,0,0,376,323,0,435,264,0,106,588,5,20,0
2020,119,8,ESCUELA CENTENARIO,MUNICIPAL,PERSONA JUR?ÏDICA,1,11,IQUIQUE,11,IQUIQUE,1101,IQUIQUE,SERRANO,998,,-20.213511,-70.145119,592,66,472,0,54,0,0,0,0,313,279,0,273,319,0,19,573,0,18,0
2020,122,8,ESCUELA THILDA PORTILLO OLIVARES,MUNICIPAL,PERSONA JUR?ÏDICA,1,11,IQUIQUE,11,IQUIQUE,1101,IQUIQUE,LAS MAGNOLIAS,1834,LAS MAGNOLIAS CON LAS AMAPOLAS,-20.23621,-70.141006,359,62,297,0,0,0,0,0,0,211,148,0,279,80,0,22,337,0,10,0
2020,123,6,COLEGIO ESPANA,MUNICIPAL,PERSONA JUR?ÏDICA,1,11,IQUIQUE,11,IQUIQUE,1101,IQUIQUE,EL MONTE,0, S/N AVDA EL MONTE ENTRE CALLES CERRO DRAG?ÙN Y AVDA LA TIRANA. SECTOR LAS DUNAS,-20.239719,-70.128853,434,69,365,0,0,0,0,0,0,248,186,0,328,106,0,65,368,1,16,0
2020,124,4,LICEO LUIS CRUZ MARTINEZ,MUNICIPAL,PERSONA JUR?ÏDICA,1,11,IQUIQUE,11,IQUIQUE,1101,IQUIQUE,ANKER NIELSEN,2250,ANKER NIELSEN ESQUINA PEDRO GAMBONI PLAYA BRAVA IQUIQUE,-20.241989,-70.137444,1145,0,0,0,0,615,0,530,0,633,512,0,889,256,0,121,1024,0,32,0
2020,125,2,ESCUELA PROFESOR MANUEL CASTRO RAMOS,MUNICIPAL,PERSONA JUR?ÏDICA,1,11,IQUIQUE,11,IQUIQUE,1101,IQUIQUE,CASTRO RAMOS,2188,AVENIDA PLAYA BRAVA CON CALLE CASTRO RAMOS,-20.245781,-70.138268,1132,133,736,0,0,263,0,0,0,650,482,0,879,253,0,72,1060,0,34,0
2020,126,0,COLEGIO REPUBLICA DE ITALIA,MUNICIPAL,PERSONA JUR?ÏDICA,1,11,IQUIQUE,11,IQUIQUE,1101,IQUIQUE,RANCAGUA,2958,DETR?¸S DEL ESTADIO TIERRA DE CAMPEONES.   CALLE RANCAGUA ENTRE CASTRO RAMOS Y PASAJE SANTA ELENA.,-20.243601,-70.131493,660,104,556,0,0,0,0,0,0,342,318,0,503,157,0,29,631,0,23,0
2020,127,9,LICEO MARIA AUXILIADORA,PARTICULAR SUBVENCIONADO,PERSONA JUR?ÏDICA,1,11,IQUIQUE,11,IQUIQUE,1101,IQUIQUE,JOSE JOAQUIN PEREZ,752,JOAQU?ÏN P?ÎREZ ENTRE VIVAR Y BARROS ARANA,-20.222321,-70.148376,920,0,620,0,0,300,0,0,0,1,919,0,892,28,0,46,873,1,24,0
2020,129,5,LICEO SUPERIOR GABRIELA MISTRAL,PARTICULAR SUBVENCIONADO,PERSONA JUR?ÏDICA,1,11,IQUIQUE,11,IQUIQUE,1101,IQUIQUE,PATRICIO LYNCH,1398,ESQUINA CALLE RIQUELME,-20.22109,-70.151443,244,18,146,0,0,80,0,0,0,111,133,0,152,92,0,17,227,0,14,0
2020,130,9,COLEGIO NORTH COLLEGE,PARTICULAR SUBVENCIONADO,PERSONA JUR?ÏDICA,1,11,IQUIQUE,11,IQUIQUE,1101,IQUIQUE,MANUEL RODRIGUEZ,1180,MANUEL RODRIGUEZ ENTRE CALLES ERR?¸ZURIZ Y ARTURO FERNANDEZ,-20.223459,-70.144234,394,0,279,0,0,115,0,0,0,220,174,0,381,13,0,12,381,1,14,0
2020,131,7,COLEGIO ESCASCE,PARTICULAR SUBVENCIONADO,PERSONA JUR?ÏDICA,1,11,IQUIQUE,11,IQUIQUE,1101,IQUIQUE,CESPEDES Y GONZALEZ,787,,-20.22464,-70.148178,382,0,256,0,0,126,0,0,0,193,189,0,308,74,0,22,360,0,12,0
2020,132,5,COLEGIO BAJO MOLLE,PARTICULAR SUBVENCIONADO,PERSONA JUR?ÏDICA,1,11,IQUIQUE,11,IQUIQUE,1101,IQUIQUE,KM. 10 MANZANA L LOTE A Y B BAJO MOLLE,0,,-20.28974,-70.127434,1854,80,1050,0,0,724,0,0,0,887,967,0,1828,26,0,57,1797,0,52,0
2020,133,3,COLEGIO ADVENTISTA DE IQUIQUE,PARTICULAR SUBVENCIONADO,PERSONA JUR?ÏDICA,1,11,IQUIQUE,11,IQUIQUE,1101,IQUIQUE,LIBERTAD,750,LIBERTAD ENTRE BARROS ARANA Y VIVAR,-20.22514,-70.148499,752,71,504,0,0,177,0,0,0,393,359,0,691,61,0,51,701,0,21,0
2020,134,1,LICEO ATENEA,PARTICULAR SUBVENCIONADO,PERSONA JUR?ÏDICA,1,11,IQUIQUE,11,IQUIQUE,1101,IQUIQUE,PEDRO LAGOS,951,,-20.21558,-70.154388,351,0,244,0,0,107,0,0,0,183,168,0,307,44,0,10,341,0,12,0
2020,136,8,J.  I.  CAPULLITO,PARTICULAR PAGADO (O NO SUBVENCIONADO),PERSONA NATURAL,1,11,IQUIQUE,11,IQUIQUE,1101,IQUIQUE,THOMPSON,0,HOSPITAL DR. E. TORRES G. IQUIQUE-CHILE,-20.215338,-70.13811,0,0,0,0,0,0,0,0,0,0,0,0,0,0,0,0,0,0,0,0
2020,139,2,JARDIN INFANTIL CONEJITO,PARTICULAR PAGADO (O NO SUBVENCIONADO),PERSONA JUR?ÏDICA,1,11,IQUIQUE,11,IQUIQUE,1101,IQUIQUE,GOROSTIAGA,165,ENTRE CALLES ANIBAL PINTO Y PEDRO LAGOS SECTOR EL MORRO,-20.214958,-70.15338,0,0,0,0,0,0,0,0,0,0,0,0,0,0,0,0,0,0,0,0
2020,144,9,COLEGIO IQUIQUE YOUNG SCHOOL,PARTICULAR SUBVENCIONADO,PERSONA JUR?ÏDICA,1,11,IQUIQUE,11,IQUIQUE,1101,IQUIQUE,MANUEL RODRIGUEZ,1311,SECTOR CENTRO NORTE DE LA CIUDAD,-20.223631,-70.143044,374,0,238,0,0,136,0,0,0,206,168,0,355,19,0,25,349,0,12,0
2020,154,6,ESCUELA BASICA FRONTERIZA,MUNICIPAL,PERSONA JUR?ÏDICA,1,14,TAMARUGAL,11,IQUIQUE,1404,HUARA,VIGUERAS,27,"PUEBLO DE TARAPAC?¸ HUARA - TAMARUGAL, AL ESTE DE HUARA,POR EL CAMINO INTERNACIONAL HACIA COLCHANE, EN LA QUEBRADA DE TARAPAC?¸.",-19.92428,-69.511124,43,6,37,0,0,0,0,0,0,23,20,0,30,13,0,31,12,0,0,4
2020,156,2,ESCUELA PISAGUA,MUNICIPAL,PERSONA JUR?ÏDICA,1,14,TAMARUGAL,11,IQUIQUE,1404,HUARA,TORIBIO ROBINET,0,,-19.59798,-70.212967,32,5,27,0,0,0,0,0,0,17,15,0,32,0,0,2,30,0,0,4
2020,158,9,ESCUELA CHIAPA,MUNICIPAL,PERSONA JUR?ÏDICA,1,14,TAMARUGAL,11,IQUIQUE,1404,HUARA,ARIQUILDA,0,"PUEBLO DE CHIAPA,COMUNA DE HUARA PROVINCIA DEL TAMARUGAL A 12O KM. DE AL NOROESTE DE HUARA POR LA RUTA HUARA COLCHANE.",-19.53726,-69.20697,3,0,3,0,0,0,0,0,0,2,1,0,1,2,0,3,0,0,3,0
2020,159,7,ESCUELA JAINA,MUNICIPAL,PERSONA JUR?ÏDICA,1,14,TAMARUGAL,11,IQUIQUE,1404,HUARA,GUACOLDA,0,"LOCALIDAD UBICADA EN LA PRECORDILLERA DE LA COMUNA DE HUARA,EN LA QUEBRADA DE AROMA, A CONTINUACI?ÙN DE CHIAPA E ILLALLA.",-19.55468,-69.245956,3,0,3,0,0,0,0,0,0,2,1,0,3,0,0,3,0,0,2,1
2020,160,0,ESCUELA PACHICA,MUNICIPAL,PERSONA JUR?ÏDICA,1,14,TAMARUGAL,11,IQUIQUE,1404,HUARA,AVENIDA COMERCIO,0,EL PUEBLO DE PACHICA SE ENCUENTRA AL NORESTE DEL PUEBLO DE TARAPAC?¸ Y A 13 KM APROXIMADAMENTE DE ?ÎL.,-19.8659,-69.432037,32,8,24,0,0,0,0,0,0,16,16,0,23,9,0,24,8,0,2,3
2020,161,9,LICEO DE HUARA,MUNICIPAL,PERSONA JUR?ÏDICA,1,14,TAMARUGAL,11,IQUIQUE,1404,HUARA,AVENIDA PRAT,0,VALENZUELAHUANCA@GMAIL.COM,-19.99688,-69.772636,365,46,192,6,0,58,33,30,0,195,170,0,300,65,0,208,156,1,18,0
2020,162,7,ESCUELA SIBAYA,MUNICIPAL,PERSONA JUR?ÏDICA,1,14,TAMARUGAL,11,IQUIQUE,1404,HUARA,BALMACEDA,0,PUEBLO DE SIBAYA,-19.779831,-69.161087,35,0,35,0,0,0,0,0,0,23,12,0,28,7,0,30,5,0,0,3
2020,165,1,ESCUELA CHUSMIZA,MUNICIPAL,PERSONA JUR?ÏDICA,1,14,TAMARUGAL,11,IQUIQUE,1404,HUARA,11 DE SEPTIEMBRE,0,PUEBLO DE CHUSMIZA,-19.683929,-69.188393,4,0,4,0,0,0,0,0,0,3,1,0,3,1,0,3,1,0,3,0
2020,167,8,ESCUELA CAMINA,MUNICIPAL,PERSONA JUR?ÏDICA,1,14,TAMARUGAL,11,IQUIQUE,1402,CAMI?ÊA,ELEUTERIO RAMIREZ,0, S/N EN ESQUINA,-19.3118,-69.424637,123,11,112,0,0,0,0,0,0,59,64,0,114,9,0,96,27,0,9,0
2020,168,6,ESCUELA CUISAMA,MUNICIPAL,PERSONA JUR?ÏDICA,1,14,TAMARUGAL,11,IQUIQUE,1402,CAMI?ÊA,CAMINO PUBLICO,217,,-19.323589,-69.456703,2,0,2,0,0,0,0,0,0,1,1,0,2,0,0,2,0,0,2,0
2020,169,4,ESCUELA QUISTAGAMA,MUNICIPAL,PERSONA JUR?ÏDICA,1,14,TAMARUGAL,11,IQUIQUE,1402,CAMI?ÊA,PUEBLO QUISTAGAMA,0,CAMINO  P?‹BLICO  S/N,-19.34207,-69.497017,8,0,8,0,0,0,0,0,0,5,3,0,8,0,0,7,1,0,1,1
2020,170,8,ESCUELA NAMA,MUNICIPAL,PERSONA JUR?ÏDICA,1,14,TAMARUGAL,11,IQUIQUE,1402,CAMI?ÊA,AVENIDA TRINIDAD,12,,-19.18918,-69.411568,3,0,3,0,0,0,0,0,0,2,1,0,3,0,0,2,1,0,2,0
2020,171,6,ESCUELA APAMILCA,MUNICIPAL,PERSONA JUR?ÏDICA,1,14,TAMARUGAL,11,IQUIQUE,1402,CAMI?ÊA,ESMERALDA,0,S/N,-19.309509,-69.392776,3,0,3,0,0,0,0,0,0,3,0,0,3,0,0,2,1,0,0,1
2020,172,4,ESCUELA CHAPIQUILTA,MUNICIPAL,PERSONA JUR?ÏDICA,1,14,TAMARUGAL,11,IQUIQUE,1402,CAMI?ÊA,CHAPIQUILTA,0,,-19.31773,-69.41053,6,0,6,0,0,0,0,0,0,4,2,0,5,1,0,6,0,0,0,1
2020,173,2,ESCUELA MOQUELLA,MUNICIPAL,PERSONA JUR?ÏDICA,1,14,TAMARUGAL,11,IQUIQUE,1402,CAMI?ÊA,LOCALIDAD DE MOQUELLA,0,CRUCE DE PISAGUA HACIA LA CORDILLERA.,-19.350691,-69.514977,15,0,15,0,0,0,0,0,0,5,10,0,14,1,0,10,5,0,1,1
2020,174,0,ESCUELA FRANCIA,MUNICIPAL,PERSONA JUR?ÏDICA,1,14,TAMARUGAL,11,IQUIQUE,1402,CAMI?ÊA,CAMINO PUBLICO,0,S/N,-19.381559,-69.571472,20,0,20,0,0,0,0,0,0,10,10,0,13,7,0,14,6,0,0,1
2020,175,9,ESCUELA YALA YALA,MUNICIPAL,PERSONA JUR?ÏDICA,1,14,TAMARUGAL,11,IQUIQUE,1402,CAMI?ÊA,LOS OLIVOS,0, S/N,-19.31469,-69.400093,7,0,7,0,0,0,0,0,0,3,4,0,7,0,0,6,1,0,2,1
2020,177,5,ESCUELA BASICA CARIQUIMA,MUNICIPAL,PERSONA JUR?ÏDICA,1,14,TAMARUGAL,11,IQUIQUE,1403,COLCHANE,PUERTO VARAS,0,"S/N 300 KM. DE IQUIQUE EN EL ALTIPLANO, FRONTERAS CON BOLIVIA, A 30 KM. DE COLCHANE.... A 4 MIL METROS DE ALTURA.",-19.467211,-68.644753,8,0,8,0,0,0,0,0,0,6,2,0,3,5,0,5,3,0,0,1
2020,178,3,LICEO TECNICO PROFESIONAL COLCHANE,MUNICIPAL,PERSONA JUR?ÏDICA,1,14,TAMARUGAL,11,IQUIQUE,1403,COLCHANE,AVENIDA TENIENTE GONZALEZ,0,S/N TENIENTE  GONZALEZ S/N LOCALIDAD DE  COLCHANE,-19.27648,-68.639137,153,17,87,0,0,28,0,21,0,81,72,0,114,39,0,107,46,0,15,1
2020,179,1,ESCUELA BASICA MAUQUE,MUNICIPAL,PERSONA JUR?ÏDICA,1,14,TAMARUGAL,11,IQUIQUE,1403,COLCHANE,MAUQUE,0,"S/N, AVENIDA TENIENTE GONZALEZ S/N",-19.322821,-68.880547,2,0,2,0,0,0,0,0,0,1,1,0,2,0,0,2,0,0,2,0
2020,185,6,ESCUELA BASICA PISIGA-CHOQUE,MUNICIPAL,PERSONA JUR?ÏDICA,1,14,TAMARUGAL,11,IQUIQUE,1403,COLCHANE,PISIGA CHOQUE,0,S/N BULNES 661 IQUIQUE,-19.302839,-68.617798,10,0,10,0,0,0,0,0,0,9,1,0,3,7,0,6,4,0,0,1
2020,186,4,ESCUELA BASICA ENQUELGA,MUNICIPAL,PERSONA JUR?ÏDICA,1,14,TAMARUGAL,11,IQUIQUE,1403,COLCHANE,ENQUELGA,0,LOS CASTA?ÊOS   3050,-19.22897,-68.804489,2,0,2,0,0,0,0,0,0,2,0,0,2,0,0,2,0,0,0,1
2020,187,2,ESCUELA VERTIENTE DEL SABER,MUNICIPAL,PERSONA JUR?ÏDICA,1,14,TAMARUGAL,11,IQUIQUE,1405,PICA,BLANCO ENCALADA,567,ENTRE CONDELL/FABRICA,-20.488291,-69.324867,318,62,256,0,0,0,0,0,0,162,156,0,259,59,0,129,186,3,11,0
2020,188,0,ESC. MATILLA DE NUEVA EXTREMADURA,MUNICIPAL,PERSONA JUR?ÏDICA,1,14,TAMARUGAL,11,IQUIQUE,1405,PICA,BAQUEDANO,0,"LOCALIDAD DE MATILLA, COMUNA DE PICA  BAQUEDANO S/N",-20.513229,-69.360008,173,28,145,0,0,0,0,0,0,97,76,0,136,37,0,80,91,2,8,1
2020,191,0,LIC. ALCDE.SERGIO GONZALEZ GUTIERREZ,MUNICIPAL,PERSONA JUR?ÏDICA,1,14,TAMARUGAL,11,IQUIQUE,1401,POZO ALMONTE,CALLE ARICA,454,ENTRE COMERCIO Y PAMPA GERMANIA,-20.266701,-69.82016,784,0,0,0,0,189,69,526,0,383,401,0,655,129,0,350,434,0,26,0
2020,192,9,ESCUELA BASICA MAMINA,MUNICIPAL,PERSONA JUR?ÏDICA,1,14,TAMARUGAL,11,IQUIQUE,1401,POZO ALMONTE,AVENIDA ESPA?ÊA,698,COMUNA DE POZO ALMONTE,-20.071039,-69.217613,45,7,38,0,0,0,0,0,0,18,27,0,41,4,0,27,18,0,2,4
2020,193,7,ESCUELA BASICA POZO ALMONTE,MUNICIPAL,PERSONA JUR?ÏDICA,1,14,TAMARUGAL,11,IQUIQUE,1401,POZO ALMONTE,CASCADA,86,CASCADA ENTRE SAGASCA Y LIBERTAD.POB. CLEMENTE P?ÎREZ,-20.245819,-69.78228,674,129,545,0,0,0,0,0,0,353,321,0,631,43,0,362,311,1,20,0
2020,195,3,ESCUELA BASICA LA TIRANA,MUNICIPAL,PERSONA JUR?ÏDICA,1,14,TAMARUGAL,11,IQUIQUE,1401,POZO ALMONTE,ALGARROBO,0,SE ENCUENTRA UBICADA A LADO SUR DEL PUEBLO DE LA TIRANA.,-20.33765,-69.655434,264,56,208,0,0,0,0,0,0,131,133,0,225,39,0,88,167,9,8,1
2020,196,1,ESCUELA BASICA HUATACONDO,MUNICIPAL,PERSONA JUR?ÏDICA,1,14,TAMARUGAL,11,IQUIQUE,1401,POZO ALMONTE,OBISPADO,0,,-20.92778,-69.05336,5,0,5,0,0,0,0,0,0,3,2,0,0,5,0,0,5,0,0,1
2020,198,8,ESCUELA BASICA LA HUAYCA,MUNICIPAL,PERSONA JUR?ÏDICA,1,14,TAMARUGAL,11,IQUIQUE,1401,POZO ALMONTE,AVENIDA BERNARDO O'HIGGINS,444,CARRETERA,-20.430571,-69.560463,94,18,76,0,0,0,0,0,0,50,44,0,75,19,0,47,46,1,2,3
2020,199,6,LICEO DOMINGO LATRILLE LASTAUNOU,MUNICIPAL,PERSONA JUR?ÏDICA,2,23,TOCOPILLA,21,ANTOFAGASTA - TOCOPILLA,2301,TOCOPILLA,CARRERA,1305,FRENTE AL ESTADIO MUNICIPAL DE TOCOPILLA,-22.088579,-70.194794,688,0,0,20,0,437,205,26,0,350,338,0,615,73,0,8,680,0,25,0
2020,200,3,LICEO POLITECNICO DIEGO PORTALES P.,MUNICIPAL,PERSONA JUR?ÏDICA,2,23,TOCOPILLA,21,ANTOFAGASTA - TOCOPILLA,2301,TOCOPILLA,AVENIDA TENIENTE MERINO,1298,AVENIDA TENIENTE MERINO ESQUINA ALEXIS SANCHEZ,-22.0851,-70.195702,556,0,0,0,0,147,0,409,0,306,250,0,504,52,0,11,545,0,19,0
2020,201,1,ESCUELA CARLOS CONDELL DE LA HAZA,MUNICIPAL,PERSONA JUR?ÏDICA,2,23,TOCOPILLA,21,ANTOFAGASTA - TOCOPILLA,2301,TOCOPILLA,RUTA 1,1402,ESQ. A. PRAT S/N BAQUEDANO ESQ. A. PRAT S/N,-22.09388,-70.203949,562,115,447,0,0,0,0,0,0,311,251,0,529,33,0,3,558,1,20,0
2020,203,8,ESCUELA PABLO NERUDA,MUNICIPAL,PERSONA JUR?ÏDICA,2,23,TOCOPILLA,21,ANTOFAGASTA - TOCOPILLA,2301,TOCOPILLA,CARRERA,0,ENTRE LA AVDA. 18 DE SEPTIEMBRE Y CALLE SUCRE.CERCA  DEL HOSPITAL MARCOS MACUADA.,-22.08918,-70.194397,580,95,485,0,0,0,0,0,0,310,270,0,528,52,0,24,550,6,20,0
2020,204,6,ESCUELA L.GRAL.BERNARDO O??HIGGINS R.,MUNICIPAL,PERSONA JUR?ÏDICA,2,23,TOCOPILLA,21,ANTOFAGASTA - TOCOPILLA,2301,TOCOPILLA,AVENIDA 18 DE SEPTIEMBRE,2850,AVENIDA 18 DE SEPTIEMBRE ESQUINA GOM?ÎZ CARRE?ÊO N??2850,-22.08532,-70.189217,596,135,461,0,0,0,0,0,0,290,306,0,551,45,0,17,571,8,19,0
2020,205,4,ESCUELA ARTURO PRAT CHACON,MUNICIPAL,PERSONA JUR?ÏDICA,2,23,TOCOPILLA,21,ANTOFAGASTA - TOCOPILLA,2301,TOCOPILLA,AVENIDA 18 DE SEPTIEMBRE,2284,"FRENTE A PLAZOLETA O??HIGGINS, A UNA CUADRA DEL MERCADO MUNICIPAL (SECTOR NORTE) AL LADO ESTE DEL ESTADIO ASCANIO CORT?ÎS",-22.085079,-70.187561,444,78,366,0,0,0,0,0,0,242,202,0,360,84,0,16,424,4,19,0
2020,206,2,ESCUELA ESTADOS UNIDOS DE NORTEAMERICA,MUNICIPAL,PERSONA JUR?ÏDICA,2,23,TOCOPILLA,21,ANTOFAGASTA - TOCOPILLA,2301,TOCOPILLA,CORBETA COVADONGA,460,,-22.108561,-70.210274,481,131,350,0,0,0,0,0,0,244,237,0,476,5,0,12,457,12,16,0
2020,207,0,ESC. ESPECIAL PEDRO AGUIRRE CERDA,MUNICIPAL,PERSONA JUR?ÏDICA,2,23,TOCOPILLA,21,ANTOFAGASTA - TOCOPILLA,2301,TOCOPILLA,GOMEZ CARRENO,0,S/N,-22.08630943,-70.18914795,63,0,0,0,63,0,0,0,0,47,16,0,61,2,0,1,62,0,2,0
2020,208,9,COLEGIO SAGRADA FAMILIA,PARTICULAR SUBVENCIONADO,PERSONA JUR?ÏDICA,2,23,TOCOPILLA,21,ANTOFAGASTA - TOCOPILLA,2301,TOCOPILLA,SERRANO,1156,ENTRE ARTURO PRAT Y BARROS ARANA,-22.09469,-70.204918,1207,140,630,0,0,437,0,0,0,569,638,0,1182,25,0,17,1187,3,32,0
2020,210,0,ESCUELA ARTURO PEREZ CANTO,MUNICIPAL,PERSONA JUR?ÏDICA,2,23,TOCOPILLA,21,ANTOFAGASTA - TOCOPILLA,2302,MAR?ÏA ELENA,TEMUCO,0,FRENTE AL ESTADIO TECHADO MUNICIPAL,-22.34457,-69.667801,655,118,537,0,0,0,0,0,0,346,309,0,578,77,0,4,609,42,26,0
2020,211,9,LICEO H.C. T.P. MARIA ELENA,MUNICIPAL,PERSONA JUR?ÏDICA,2,23,TOCOPILLA,21,ANTOFAGASTA - TOCOPILLA,2302,MAR?ÏA ELENA,AVENIDA PEDRO DE VALDIVIA,0,S/N FRENTE A LA  ANTIGUA  PISCINA,-22.346689,-69.667122,261,0,0,0,0,175,0,86,0,135,126,0,242,19,0,3,257,1,11,0
2020,214,3,ESCUELA IGNACIO CARRERA PINTO,MUNICIPAL,PERSONA JUR?ÏDICA,2,23,TOCOPILLA,21,ANTOFAGASTA - TOCOPILLA,2302,MAR?ÏA ELENA,LA ESCUELA,45,,-21.66033,-69.534988,28,0,28,0,0,0,0,0,0,11,17,0,24,4,0,9,19,0,0,1
2020,217,8,LICEO LUIS CRUZ MARTINEZ,MUNICIPAL,PERSONA JUR?ÏDICA,2,22,EL LOA,22,EL LOA,2201,CALAMA,LATORRE,2550,SECTOR CENTRO/HOSPITAL,-22.455099,-68.926651,1140,0,0,0,0,1140,0,0,0,482,658,0,1056,84,0,131,1008,1,28,0
2020,218,6,LICEO FRANCISCO DE AGUIRRE,MUNICIPAL,PERSONA JUR?ÏDICA,2,22,EL LOA,22,EL LOA,2201,CALAMA,ANIBAL PINTO,2278,DETR?¸S DEL ANTIGUO HOSPITAL CARLOS CISTERNAS,-22.45826,-68.931236,459,0,0,0,0,399,0,60,0,197,262,0,298,161,0,49,409,1,17,0
2020,219,4,LICEO BICENTENARIO POLITECNICO CESAREO AGUIRRE GOYNECHEA,MUNICIPAL,PERSONA JUR?ÏDICA,2,22,EL LOA,22,EL LOA,2201,CALAMA,AVENIDA MATTA,2045,CALAMA CENTRO,-22.458759,-68.920486,819,0,0,0,8,0,0,811,0,598,221,0,600,219,0,144,675,0,24,0
2020,220,8,LICEO MINERO AM?ÎRICA,MUNICIPAL,PERSONA JUR?ÏDICA,2,22,EL LOA,22,EL LOA,2201,CALAMA,RIQUELME,4050,VILLA AYQUINA. AVENIDA CENTRAL SUR ESQUINA RIQUELME,-22.43762,-68.924553,1110,0,0,0,0,0,0,1110,0,646,464,0,972,138,0,170,940,0,29,0
2020,222,4,CENTRO EDUC.INTEGRAL DE ADULTOS C.E.I.A,MUNICIPAL,PERSONA JUR?ÏDICA,2,22,EL LOA,22,EL LOA,2201,CALAMA,BANADOS ESPINOZA,1896,,-22.46032524,-68.92471313,483,0,0,31,0,0,452,0,0,263,220,0,433,50,0,53,419,11,21,0
2020,223,2,ESCUELA CLAUDIO ARRAU,MUNICIPAL,PERSONA JUR?ÏDICA,2,22,EL LOA,22,EL LOA,2201,CALAMA,LATORRE,3150,LATORRE CON CHORRILLOS HACIA EL NORTE.  (DETR?¸S DEL MALL PLAZA).,-22.44936,-68.926231,594,0,594,0,0,0,0,0,0,370,224,0,284,310,0,96,498,0,16,0
2020,224,0,ESCUELA GRECIA,MUNICIPAL,PERSONA JUR?ÏDICA,2,22,EL LOA,22,EL LOA,2201,CALAMA,AVENIDA GRECIA,2128,AVENIDA GRECIA ENTRE CALLES ANTOFAGASTA Y FELIX HOYOS,-22.4603,-68.933693,1028,0,1028,0,0,0,0,0,0,572,456,0,598,430,0,178,850,0,26,0
2020,225,9,ESCUELA REPUBLICA DE BOLIVIA,MUNICIPAL,PERSONA JUR?ÏDICA,2,22,EL LOA,22,EL LOA,2201,CALAMA,SOTOMAYOR,2254,SOTOMAYOR 2254 CENTRO CALAMA,-22.4627,-68.928589,1013,0,1013,0,0,0,0,0,0,544,469,0,939,74,0,189,824,0,25,0
2020,226,7,ESCUELA BASICA EMILIO SOTOMAYOR,MUNICIPAL,PERSONA JUR?ÏDICA,2,22,EL LOA,22,EL LOA,2201,CALAMA,LIMON VERDE,4073," VILLA AYQUINA FRENTE DE MUTUAL DE SEGURIDAD, ENTRE AVDA. CENTRAL NORTE Y AVDA. CENTRAL SUR DE VILLA AYQUINA.",-22.43815,-68.922653,921,0,921,0,0,0,0,0,0,464,457,0,829,92,0,122,797,2,25,0
2020,227,5,ESCUELA BASICA PRESIDENTE BALMACEDA,MUNICIPAL,PERSONA JUR?ÏDICA,2,22,EL LOA,22,EL LOA,2201,CALAMA,AVENIDA BALMACEDA,2054,SECTOR CENTRO CALAMA,-22.45923,-68.922813,1562,0,1562,0,0,0,0,0,0,859,703,0,1008,554,0,223,1339,0,40,0
2020,228,3,ESCUELA BASICA VADO DE TOPATER,MUNICIPAL,PERSONA JUR?ÏDICA,2,22,EL LOA,22,EL LOA,2201,CALAMA,AVENIDA GRECIA,573, VILLA CASPANA CALAMA,-22.47698,-68.929062,606,0,606,0,0,0,0,0,0,305,301,0,431,175,0,47,557,2,16,0
2020,229,1,ESCUELA REPUBLICA DE CHILE,MUNICIPAL,PERSONA JUR?ÏDICA,2,22,EL LOA,22,EL LOA,2201,CALAMA,CALLE EL LITIO,4263,EL LITIO  4263 VILLA LOS YACIMIENTOS,-22.444321,-68.908012,633,0,633,0,0,0,0,0,0,345,288,0,447,186,0,68,565,0,16,0
2020,230,5,ESCUELA BASICA ANDRES BELLO,MUNICIPAL,PERSONA JUR?ÏDICA,2,22,EL LOA,22,EL LOA,2201,CALAMA,LOS CHA?ÊARES,1297, VILLA LOS PIMIENTOS,-22.45573,-68.916397,621,0,621,0,0,0,0,0,0,317,304,0,541,80,0,171,450,0,16,0
2020,231,3,ESCUELA BASICA JOHN FITZGERALD KENNEDY,MUNICIPAL,PERSONA JUR?ÏDICA,2,22,EL LOA,22,EL LOA,2201,CALAMA,AVENIDA CHORRILLOS,1391,UBICADA EN LA POBLACI?ÙN ENTRE R?ÏOS.,-22.45438,-68.920174,714,0,714,0,0,0,0,0,0,386,328,0,634,80,0,147,563,4,19,0
2020,232,1,ESCUELA BASICA PEDRO VERGARA KELLER,MUNICIPAL,PERSONA JUR?ÏDICA,2,22,EL LOA,22,EL LOA,2201,CALAMA,GUATEMALA,3686,,-22.4417,-68.932564,611,0,611,0,0,0,0,0,0,327,284,0,364,247,0,92,519,0,16,0
2020,236,4,ESCUELA DE PARVULOS LAS ABEJITAS,MUNICIPAL,PERSONA JUR?ÏDICA,2,22,EL LOA,22,EL LOA,2201,CALAMA,AVENIDA GRECIA,545,VILLA CASPANA POR AVDA. GRECIA COSTADO SUR ESC.   VADO DE TOPATER.,-22.47755623,-68.92974854,267,267,0,0,0,0,0,0,0,142,125,0,236,31,0,26,232,9,8,0
2020,237,2,ESCUELA DE PARVULOS LLAMITO BLANCO,MUNICIPAL,PERSONA JUR?ÏDICA,2,22,EL LOA,22,EL LOA,2201,CALAMA,LIMON VERDE,4068,VILLA AYQUINA ENTRE GRAN AVENIDA CENTRAL SUR Y CENTRAL NORTE,-22.43809319,-68.92285919,313,313,0,0,0,0,0,0,0,152,161,0,303,10,0,64,246,3,9,0
2020,238,0,ESCUELA DIFERENCIAL LOA,MUNICIPAL,PERSONA JUR?ÏDICA,2,22,EL LOA,22,EL LOA,2201,CALAMA,CHORRILLO,1335," POBLACION ENTRE RIOS. LA ESCUELA QUEDA EN SECTOR BALMACEDA CON CHORRILLOS, PASANDO L?ÏNEA DEL TREN AL LADO DE ESCUELA JOHN KENNEDY",-22.45413589,-68.91889954,209,0,0,0,209,0,0,0,0,137,72,0,179,30,0,29,180,0,9,0
2020,239,9,ESCUELA BASICA 21 DE MAYO,MUNICIPAL,PERSONA JUR?ÏDICA,2,22,EL LOA,22,EL LOA,2201,CALAMA,COLOMBIA,2926,DOS CUADRAS AL OESTE DEL TERMINAL DE BUSES TUR-BUS.,-22.450781,-68.932007,669,0,669,0,0,0,0,0,0,366,303,0,373,296,0,92,577,0,16,0
2020,240,2,ESCUELA BASICA REPUBLICA DE FRANCIA,MUNICIPAL,PERSONA JUR?ÏDICA,2,22,EL LOA,22,EL LOA,2201,CALAMA,PEINE,782," VILLA CASPANA CALLE PEINE, ENTRE CALLE TURI Y SANTIAGO.",-22.474831,-68.932648,646,0,646,0,0,0,0,0,0,348,298,0,584,62,0,87,559,0,16,0
2020,241,0,ESCUELA PARVULARIA LAS ARDILLAS,MUNICIPAL,PERSONA JUR?ÏDICA,2,22,EL LOA,22,EL LOA,2201,CALAMA,AVENIDA INDEPENDENCIA,2351,"POBLACION INDEPENDENCIA. AVENIDA INDEPENDENCIA   N?? 2351, ENTRE CALLESBRASIL Y EJERCITO",-22.44329071,-68.92927551,192,192,0,0,0,0,0,0,0,114,78,0,159,33,0,42,149,1,6,0
2020,243,7,ESCUELA BASICA PUKARA,MUNICIPAL,PERSONA JUR?ÏDICA,2,22,EL LOA,22,EL LOA,2201,CALAMA,PUKARA,0,S/N,-22.26803,-68.631218,20,0,20,0,0,0,0,0,0,12,8,0,20,0,0,14,6,0,4,1
2020,244,5,ESCUELA DE PARVULOS LOS ENANITOS,MUNICIPAL,PERSONA JUR?ÏDICA,2,22,EL LOA,22,EL LOA,2201,CALAMA,CHACABUCO,3048,POB. 23 DE MARZO,-22.45796585,-68.93946838,271,271,0,0,0,0,0,0,0,148,123,0,238,33,0,77,193,1,8,0
2020,245,3,ESCUELA DE PARVULOS PAPELUCHO,MUNICIPAL,PERSONA JUR?ÏDICA,2,22,EL LOA,22,EL LOA,2201,CALAMA,TIL TIL NORTE,1342,,-22.44638252,-68.91606903,120,120,0,0,0,0,0,0,0,57,63,0,103,17,0,18,100,2,4,0
2020,246,1,ESCUELA BASICA SENORA DE LA CANDELARIA,MUNICIPAL,PERSONA JUR?ÏDICA,2,22,EL LOA,22,EL LOA,2201,CALAMA,O'HIGGINS,133,PUEBLO DE CASPANA,-22.33777,-68.212242,13,2,11,0,0,0,0,0,0,5,8,0,13,0,0,12,1,0,8,0
2020,248,8,ESCUELA BASICA SAN JOSE,MUNICIPAL,PERSONA JUR?ÏDICA,2,22,EL LOA,22,EL LOA,2201,CALAMA,BERNARDO O'HIGGINS,9,PUEBLO DE AYQUINA,-22.27883,-68.322403,4,0,4,0,0,0,0,0,0,2,2,0,4,0,0,4,0,0,2,2
2020,252,6,ESCUELA BASICA SAN FRANCISCO,MUNICIPAL,PERSONA JUR?ÏDICA,2,22,EL LOA,22,EL LOA,2201,CALAMA,CALLE ESCUELA,948,PUEBLO DE CHIU CHIU A 36 KM. AL ESTE DE CALAMA.,-22.342751,-68.650139,84,0,84,0,0,0,0,0,0,49,35,0,67,17,0,56,27,1,4,2
2020,253,4,COLEGIO ADVENTISTA DE CALAMA,PARTICULAR SUBVENCIONADO,PERSONA JUR?ÏDICA,2,22,EL LOA,22,EL LOA,2201,CALAMA,ABAROA,1490,SECTOR CENTRO,-22.465719,-68.926689,939,56,628,0,0,255,0,0,0,472,467,0,916,23,0,140,797,2,26,0
2020,254,2,FUNDACION EDUC.COLEGIO NUESTRA SRA.DE AYQUINA,PARTICULAR SUBVENCIONADO,PERSONA JUR?ÏDICA,2,22,EL LOA,22,EL LOA,2201,CALAMA,ELEUTERIO RAMIREZ,2188,CENTRO,-22.461519,-68.927673,959,0,737,0,0,222,0,0,0,16,943,0,860,99,0,158,801,0,28,0
2020,255,0,COLEGIO EJERCITO DE SALVACION,PARTICULAR SUBVENCIONADO,PERSONA JUR?ÏDICA,2,22,EL LOA,22,EL LOA,2201,CALAMA,ANIBAL PINTO,2121,,-22.4599,-68.930656,1162,86,785,0,0,291,0,0,0,597,565,0,1020,142,0,166,987,9,28,0
2020,256,9,INSTITUTO OBISPO SILVA LEZAETA,PARTICULAR SUBVENCIONADO,PERSONA JUR?ÏDICA,2,22,EL LOA,22,EL LOA,2201,CALAMA,AVENIDA BERNARDO O'HIGGINS,1256,ENTRE CALLE ECUADOR Y PUNTA ARENAS.  FRENTE A VIALIDAD,-22.46957,-68.926529,1736,0,1258,0,0,478,0,0,0,937,799,0,1709,27,0,143,1593,0,50,0
2020,257,7,COLEGIO CHUQUICAMATA,PARTICULAR PAGADO (O NO SUBVENCIONADO),PERSONA JUR?ÏDICA,2,22,EL LOA,22,EL LOA,2201,CALAMA,AVENIDA JORGE ALESSANDRI,1290,,-22.478863,-68.91212,910,0,642,0,0,268,0,0,0,482,428,0,898,12,0,12,893,5,42,0
2020,259,3,ESC. PARV. JESUS DE NAZARETH,PARTICULAR PAGADO (O NO SUBVENCIONADO),SIN INFORMACI?ÙN,2,22,EL LOA,22,EL LOA,2201,CALAMA,AVENIDA MATTA,1701,FRENTE A CAMPING COBRELOA.,-22.464136,-68.92174,90,90,0,0,0,0,0,0,0,36,54,0,90,0,0,11,79,0,4,0
2020,261,5,ESCUELA DE PARRVULOS CAPITAN RAFAEL TORREBLANCA,PARTICULAR PAGADO (O NO SUBVENCIONADO),PERSONA NATURAL,2,22,EL LOA,22,EL LOA,2201,CALAMA,AVENIDA CHORRILLOS,716,INTERIOR REGIMIENTO VILLA EXOTICA,-22.451738,-68.91319,0,0,0,0,0,0,0,0,0,0,0,0,0,0,0,0,0,0,0,0
2020,262,3,ESCUELA DE PARVULOS MICKEY MOUSE,PARTICULAR SUBVENCIONADO,PERSONA JUR?ÏDICA,2,22,EL LOA,22,EL LOA,2201,CALAMA,COLOMBIA,2963,POBL.21 DE MAYO,-22.450636,-68.93184,206,206,0,0,0,0,0,0,0,106,100,0,203,3,0,54,152,0,6,0
2020,265,8,ESCUELA DE PARVULOS LOS CONEJITOS,MUNICIPAL,PERSONA JUR?ÏDICA,2,22,EL LOA,22,EL LOA,2201,CALAMA,ANTOFAGASTA,1876,,-22.45832062,-68.92401123,139,139,0,0,0,0,0,0,0,60,79,0,125,14,0,19,119,1,4,0
2020,268,2,ESC. BASICA RURAL SAN ANTONIO DE PADUA,MUNICIPAL,PERSONA JUR?ÏDICA,2,22,EL LOA,22,EL LOA,2202,OLLAG?£E,IGNACIO CARRERA PINTO,0,IGNACIO CARRERA PINTO S/N,-21.223881,-68.25251,31,0,30,0,0,1,0,0,0,17,14,0,24,7,0,17,14,0,3,2
2020,269,0,ESCUELA BASICA SAN PEDRO DE ATACAMA,MUNICIPAL,PERSONA JUR?ÏDICA,2,22,EL LOA,22,EL LOA,2203,SAN PEDRO DE ATACAMA,IGNACIO CARRERA PINTO,500,,-22.912609,-68.196808,940,260,680,0,0,0,0,0,0,496,444,0,704,236,0,277,659,4,26,0
2020,270,4,COMPLEJO EDUCACIONAL TOCONAO,MUNICIPAL,PERSONA JUR?ÏDICA,2,22,EL LOA,22,EL LOA,2203,SAN PEDRO DE ATACAMA,ATACAMA,371,ATACAMA N?? 371 - TOCONAO,-23.19017,-68.006432,241,20,145,0,0,76,0,0,0,129,112,0,230,11,0,155,81,5,12,1
2020,271,2,ESCUELA BASICA CAMAR,MUNICIPAL,PERSONA JUR?ÏDICA,2,22,EL LOA,22,EL LOA,2203,SAN PEDRO DE ATACAMA,AVENIDA BERNARDO O'HIGGINS,0,AVDA. BERNARDO O`HIGGINS S/N PUEBLO DE C?¸MAR,-22.910219,-68.201431,11,0,11,0,0,0,0,0,0,6,5,0,11,0,0,11,0,0,1,1
2020,273,9,ESCUELA BASICA SOLOR,MUNICIPAL,PERSONA JUR?ÏDICA,2,22,EL LOA,22,EL LOA,2203,SAN PEDRO DE ATACAMA,AYLLU DE SOLOR,0,CERCA DEL COHETE Y DEL HELIC?ÙPTERO.  SAN PEDRO DE ATACAMA,-22.94903,-68.18261,30,0,30,0,0,0,0,0,0,16,14,0,30,0,0,12,18,0,0,2
2020,274,7,ESCUELA BASICA SAN ROQUE,MUNICIPAL,PERSONA JUR?ÏDICA,2,22,EL LOA,22,EL LOA,2203,SAN PEDRO DE ATACAMA,LA TORRE,0,"LA TORRE S/N LOCALIDAD DE PEINE, A 105 KM. DE SAN PEDRO DE  ATACAMA CAMINO MINERO DE SQM.",-23.67869,-68.073097,15,0,15,0,0,0,0,0,0,8,7,0,12,3,0,8,7,0,0,2
2020,275,5,ESCUELA BASICA ANDINA,MUNICIPAL,PERSONA JUR?ÏDICA,2,22,EL LOA,22,EL LOA,2203,SAN PEDRO DE ATACAMA,AVENIDA CORAN,0,PUEBLO DE RIO GRANDE. A UN COSTADO DE LA POSTA DEL PUEBLO,-22.908039,-68.201508,1,0,1,0,0,0,0,0,0,0,1,0,1,0,0,1,0,0,1,0
2020,276,3,ESCUELA BASICA TALABRE,MUNICIPAL,PERSONA JUR?ÏDICA,2,22,EL LOA,22,EL LOA,2203,SAN PEDRO DE ATACAMA,TALABRE,0,AL COSTADO MULTICANCHA,-23.32527542,-67.83605957,4,0,4,0,0,0,0,0,0,2,2,0,4,0,0,2,2,0,1,1
2020,277,1,ESCUELA BASICA SAN BARTOLOME,MUNICIPAL,PERSONA JUR?ÏDICA,2,22,EL LOA,22,EL LOA,2203,SAN PEDRO DE ATACAMA,COLOSO,0,"A 100 KMS AL SUR ESTE DE  SAN PEDRO DE ATACAMA, VIA CARRETERA INTERNACIONAL PASO SICO.",-22.90843,-68.197983,38,10,28,0,0,0,0,0,0,9,29,0,38,0,0,33,5,0,0,4
2020,279,8,LICEO INDUSTRIAL EULOGIO GORDO MONEO,MUNICIPAL,PERSONA JUR?ÏDICA,2,21,ANTOFAGASTA,21,ANTOFAGASTA - TOCOPILLA,2101,ANTOFAGASTA,AVENIDA ANTONIO RENDIC,0,S/N,-23.61371,-70.38282,2006,0,0,0,0,0,0,1766,240,1523,483,0,1736,269,1,36,1967,3,66,0
2020,280,1,LICEO COMERCIAL JERARDO MUNOZ CAMPOS,MUNICIPAL,PERSONA JUR?ÏDICA,2,21,ANTOFAGASTA,21,ANTOFAGASTA - TOCOPILLA,2101,ANTOFAGASTA,MANUEL ANTONIO MATTA,2176,MANUEL ANTONIO MATTA ESP. ORELLA,-23.6527,-70.399529,1590,0,61,0,0,0,0,1396,133,708,882,0,1079,511,0,22,1568,0,50,0
2020,282,8,LICEO A. RENDIC I. ANEXO C. REHABILIT. SOCIAL,MUNICIPAL,PERSONA JUR?ÏDICA,2,21,ANTOFAGASTA,21,ANTOFAGASTA - TOCOPILLA,2101,ANTOFAGASTA,VARON DE LA RIVIE,1068,,-23.65327454,-70.39200592,16,0,0,3,0,0,13,0,0,12,4,0,12,4,0,0,16,0,3,0
2020,283,6,LICEO TECNICO ANTOFAGASTA,MUNICIPAL,PERSONA JUR?ÏDICA,2,21,ANTOFAGASTA,21,ANTOFAGASTA - TOCOPILLA,2101,ANTOFAGASTA,21 DE MAYO,409,ESQUINA CALLE JOS?Î DE SAN MART?ÏN,-23.650841,-70.401947,1305,0,0,0,0,0,0,1013,292,240,1065,0,1049,256,0,30,1275,0,42,0
2020,284,4,LICEO DE HOMBRES DE ANTOFAGASTA MARIO BAHAMONDE SILVA,MUNICIPAL,PERSONA JUR?ÏDICA,2,21,ANTOFAGASTA,21,ANTOFAGASTA - TOCOPILLA,2101,ANTOFAGASTA,J SANTOS OSSA,2168,CALLE JOSE SANTOS OSSA ENTRE ORELLA Y 21 DE MAYO,-23.653629,-70.398857,984,125,413,0,0,446,0,0,0,535,449,0,332,652,0,10,973,1,39,0
2020,285,2,LICEO MARTA NAREA DIAZ,MUNICIPAL,PERSONA JUR?ÏDICA,2,21,ANTOFAGASTA,21,ANTOFAGASTA - TOCOPILLA,2101,ANTOFAGASTA,ORELLA,451,ORELLA ENTRE SAN MARTIN Y LATORRE,-23.650129,-70.401154,1151,51,593,0,0,507,0,0,0,522,629,0,629,522,0,9,1138,4,42,0
2020,286,0,LICEO LA PORTADA,MUNICIPAL,PERSONA JUR?ÏDICA,2,21,ANTOFAGASTA,21,ANTOFAGASTA - TOCOPILLA,2101,ANTOFAGASTA,EL ROBLE,6850,,-23.60877,-70.381821,823,0,0,0,0,434,105,284,0,352,471,0,631,192,0,5,818,0,29,0
2020,287,9,LICEO DOMINGO HERRERA RIVERA,MUNICIPAL,PERSONA JUR?ÏDICA,2,21,ANTOFAGASTA,21,ANTOFAGASTA - TOCOPILLA,2101,ANTOFAGASTA,LLANQUIHUE,4350,,-23.63081,-70.38768,1046,0,60,0,0,986,0,0,0,444,602,0,932,114,0,18,1028,0,36,0
2020,288,7,ESCUELA JAPON,MUNICIPAL,PERSONA JUR?ÏDICA,2,21,ANTOFAGASTA,21,ANTOFAGASTA - TOCOPILLA,2101,ANTOFAGASTA,JUAN SEBASTIAN BACH,1315,POBLACI?ÙN CORVALLIS,-23.62619,-70.379997,1172,0,1172,0,0,0,0,0,0,585,587,0,1149,23,0,29,1143,0,32,0
2020,289,5,ESCUELA ESPANA,MUNICIPAL,PERSONA JUR?ÏDICA,2,21,ANTOFAGASTA,21,ANTOFAGASTA - TOCOPILLA,2101,ANTOFAGASTA,VICU?ÊA,1105,"VICU?ÊA & PTO NATALES, PRT B.    ANTOFAGASTA",-23.619909,-70.378067,617,109,495,0,13,0,0,0,0,335,282,0,428,189,0,8,601,8,21,0
2020,291,7,ESCUELA PADRE GUSTAVO LE PAIGE WALQUE,MUNICIPAL,PERSONA JUR?ÏDICA,2,21,ANTOFAGASTA,21,ANTOFAGASTA - TOCOPILLA,2101,ANTOFAGASTA,CALBUCO,5800,,-23.618601,-70.382301,1182,69,1113,0,0,0,0,0,0,613,569,0,1078,104,0,20,1162,0,34,0
2020,292,5,ESCUELA REPUBLICA DE ITALIA,MUNICIPAL,PERSONA JUR?ÏDICA,2,21,ANTOFAGASTA,21,ANTOFAGASTA - TOCOPILLA,2101,ANTOFAGASTA,CHILOE,4654,"POB. PABLO KRUGEER, BAJADA DEL SALAR",-23.62779,-70.385933,803,128,650,0,25,0,0,0,0,448,355,0,607,196,0,16,787,0,29,0
2020,293,3,ESCUELA JOSE PAPIC RADNIC,MUNICIPAL,PERSONA JUR?ÏDICA,2,21,ANTOFAGASTA,21,ANTOFAGASTA - TOCOPILLA,2101,ANTOFAGASTA,HUAMACHUCO,8055,HUAMACHUCO ESQ. MATEO TORO Y ZAMBRANO.  FRENTE CESFAM NORTE,-23.5959,-70.381264,1329,156,1144,0,29,0,0,0,0,735,594,0,1094,235,0,13,1310,6,37,0
2020,294,1,ESCUELA PROFESORA LJUBICA DOMIC WUTH,MUNICIPAL,PERSONA JUR?ÏDICA,2,21,ANTOFAGASTA,21,ANTOFAGASTA - TOCOPILLA,2101,ANTOFAGASTA,ORELLA,680,MATTA ESQUINA ORELLA,-23.652349,-70.399803,774,0,774,0,0,0,0,0,0,417,357,0,445,329,0,5,768,1,24,0
2020,296,8,ESCUELA REPUBLICA DE LOS ESTADOS UNIDOS,MUNICIPAL,PERSONA JUR?ÏDICA,2,21,ANTOFAGASTA,21,ANTOFAGASTA - TOCOPILLA,2101,ANTOFAGASTA,21 DE MAYO,0,ENTRE AVENIDA ARGENTINA Y LINARES(SECTOR EX HOSPITAL REGIONAL),-23.657921,-70.395332,602,50,552,0,0,0,0,0,0,297,305,0,441,161,0,7,595,0,18,0
2020,297,6,ESCUELA ALCALDE MAXIMILIANO POBLETE,MUNICIPAL,PERSONA JUR?ÏDICA,2,21,ANTOFAGASTA,21,ANTOFAGASTA - TOCOPILLA,2101,ANTOFAGASTA,AVENIDA ARGENTINA,1595,AVENIDA ARGENTINA EN DIAGONAL AL EX HOSPITAL REGIONAL DE ANTOFAGASTA. SECTOR CENTRO.,-23.661079,-70.39682,665,70,583,0,12,0,0,0,0,337,328,0,434,231,0,8,656,1,19,0
2020,298,4,ESCUELA DARIO SALAS DIAZ,MUNICIPAL,PERSONA JUR?ÏDICA,2,21,ANTOFAGASTA,21,ANTOFAGASTA - TOCOPILLA,2101,ANTOFAGASTA,AVENIDA ARGENTINA,1555,SECTOR EX-HOSPITALREGIONAL,-23.66102,-70.396584,649,60,589,0,0,0,0,0,0,348,301,0,415,234,0,8,641,0,22,0
2020,301,8,ESCUELA ROMULO J. PENA MATURANA,MUNICIPAL,PERSONA JUR?ÏDICA,2,21,ANTOFAGASTA,21,ANTOFAGASTA - TOCOPILLA,2101,ANTOFAGASTA,SOLIN JUICA,3194,AVENIDA PADRE ALBERTO HURTADO ABAJO DEL  JARD?ÏN INFANT?ÏL DUMBO,-23.64414,-70.384552,564,92,472,0,0,0,0,0,0,291,273,0,415,149,0,7,556,1,20,0
2020,302,6,ESCUELA JUAN LOPEZ,MUNICIPAL,PERSONA JUR?ÏDICA,2,21,ANTOFAGASTA,21,ANTOFAGASTA - TOCOPILLA,2101,ANTOFAGASTA,COLO COLO,1955,POBLACI?ÙN VISTA HERMOSA,-23.661209,-70.391403,485,112,373,0,0,0,0,0,0,263,222,0,337,148,0,4,479,2,20,0
2020,303,4,ESCUELA REPUBLICA ARGENTINA,MUNICIPAL,PERSONA JUR?ÏDICA,2,21,ANTOFAGASTA,21,ANTOFAGASTA - TOCOPILLA,2101,ANTOFAGASTA,ARICA,286,AVENIDA PDTE. SALVADOR ALLENDE 286 ESQUINA CALLE TARAPAC?¸,-23.628611,-70.39312,544,107,437,0,0,0,0,0,0,289,255,0,396,148,0,14,529,1,20,0
2020,304,2,LICEO BICENTENARIO ANDRES SABELLA,MUNICIPAL,PERSONA JUR?ÏDICA,2,21,ANTOFAGASTA,21,ANTOFAGASTA - TOCOPILLA,2101,ANTOFAGASTA,BLUMELL,264,PLAYA BLANCA SECTOR SUR DE LA CIUDAD DE ANTOFAGASTA.,-23.67577,-70.410759,1392,156,731,0,0,505,0,0,0,715,677,0,1356,36,0,12,1378,2,36,0
2020,305,0,ESCUELA HUMBERTO GONZALEZ ECHEGOYEN,MUNICIPAL,PERSONA JUR?ÏDICA,2,21,ANTOFAGASTA,21,ANTOFAGASTA - TOCOPILLA,2101,ANTOFAGASTA,SARGENTO MANUEL SILVA,661,EL ROBLE ESQUINA MANUEL SILVA,-23.589371,-70.383522,1157,154,1003,0,0,0,0,0,0,597,560,0,1090,67,0,11,1137,9,33,0
2020,306,9,ESCUELA HUANCHACA,MUNICIPAL,PERSONA JUR?ÏDICA,2,21,ANTOFAGASTA,21,ANTOFAGASTA - TOCOPILLA,2101,ANTOFAGASTA,HUANCHACA,425,ENTRE CALLE VALDIVIA Y CALLE CARACOLES.,-23.640711,-70.390923,340,49,291,0,0,0,0,0,0,185,155,0,305,35,0,8,331,1,10,0
2020,307,7,ESCUELA DE PARVULOS MARCELA PAZ,MUNICIPAL,PERSONA JUR?ÏDICA,2,21,ANTOFAGASTA,21,ANTOFAGASTA - TOCOPILLA,2101,ANTOFAGASTA,JUAN S BACH,0,S/N POBLACION CORVALLIS ESTAMOS UBICADOS FRENTE A LA ESCUELA JAPON D-58,-23.62614059,-70.38031006,270,270,0,0,0,0,0,0,0,121,149,0,259,11,0,8,258,4,8,0
2020,310,7,ESCUELA CLAUDIO MATTE PEREZ,MUNICIPAL,PERSONA JUR?ÏDICA,2,21,ANTOFAGASTA,21,ANTOFAGASTA - TOCOPILLA,2101,ANTOFAGASTA,LLANQUIHUE,3748,"POBLACI?ÙN ORIENTE, UBICADA SOBRE LA PARTE ALTA DEL CASCO CENTRAL DE LA CIUDAD.",-23.63722,-70.387627,575,109,466,0,0,0,0,0,0,304,271,0,469,106,0,7,566,2,20,0
2020,311,5,ESC DIFERENCIAL JUAN SANDOVAL CARRASCO,MUNICIPAL,PERSONA JUR?ÏDICA,2,21,ANTOFAGASTA,21,ANTOFAGASTA - TOCOPILLA,2101,ANTOFAGASTA,GENERAL BORGO?ÊO,876,POBLACI?ÙN FAVORECEDORA   CENTRO - SUR DE LA CIUDAD DE ANTOFAGASTA,-23.66712761,-70.39998627,197,0,0,0,197,0,0,0,0,141,56,0,169,28,0,3,193,1,11,0
2020,312,3,ESCUELA ECUADOR,MUNICIPAL,PERSONA JUR?ÏDICA,2,21,ANTOFAGASTA,21,ANTOFAGASTA - TOCOPILLA,2101,ANTOFAGASTA,BELLAVISTA,3957,ENTRE CALLES QUITO Y R?ÏO DE JANEIRO. A DOS CUADRAS DE LA MUNICIPALIDAD.,-23.634991,-70.395157,693,106,562,0,25,0,0,0,0,377,316,0,564,129,0,8,673,12,22,0
2020,313,1,ESCUELA ARTURO PRAT,MUNICIPAL,PERSONA JUR?ÏDICA,2,21,ANTOFAGASTA,21,ANTOFAGASTA - TOCOPILLA,2101,ANTOFAGASTA,EL ROBLE,6952,POB. LIBERTAD,-23.607071,-70.382141,1200,125,1075,0,0,0,0,0,0,628,572,0,1095,105,0,23,1177,0,37,0
2020,315,8,ESCUELA HEROES DE LA CONCEPCION,MUNICIPAL,PERSONA JUR?ÏDICA,2,21,ANTOFAGASTA,21,ANTOFAGASTA - TOCOPILLA,2101,ANTOFAGASTA,CALBUCO,5031,ENTRE MAGALLANES Y VALLENAR,-23.62591,-70.387817,587,68,519,0,0,0,0,0,0,342,245,0,483,104,0,17,570,0,18,0
2020,316,6,ESCUELA LAS AMERICAS PROFESOR JUSTO VALLADARES ORELLANA,MUNICIPAL,PERSONA JUR?ÏDICA,2,21,ANTOFAGASTA,21,ANTOFAGASTA - TOCOPILLA,2101,ANTOFAGASTA,PEDRO AGUIRRE CERDA,7133,,-23.605101,-70.389297,409,61,348,0,0,0,0,0,0,223,186,0,336,73,0,4,405,0,14,0
2020,317,4,ESCUELA LAS ROCAS,MUNICIPAL,PERSONA JUR?ÏDICA,2,21,ANTOFAGASTA,21,ANTOFAGASTA - TOCOPILLA,2101,ANTOFAGASTA,LOS NARANJOS,49,ENTRE CALLE DEL ALTO Y LOS ALMENDROS,-23.589109,-70.393753,1018,116,902,0,0,0,0,0,0,558,460,0,817,201,0,12,999,7,28,0
2020,318,2,ESCUELA EDDA CUNEO DONNAGIO,MUNICIPAL,PERSONA JUR?ÏDICA,2,21,ANTOFAGASTA,21,ANTOFAGASTA - TOCOPILLA,2101,ANTOFAGASTA,BASE AEREA CERRO MORENO,0,LA ESCUELA SE ENCUENTRA DENTRO DE LA BASE A?ÎREA CERRO MORENO DE ANTOFAGASTA .      EN GUARDIA INDICA COMO INGRESAR A LA ESCUELA PARA HACER ENTREGA DE LOS TEXTOS ESCOLARES.,-23.4352,-70.43364,300,67,233,0,0,0,0,0,0,163,137,0,299,1,0,3,297,0,10,0
2020,319,0,ESCUELA LA BANDERA,MUNICIPAL,PERSONA JUR?ÏDICA,2,21,ANTOFAGASTA,21,ANTOFAGASTA - TOCOPILLA,2101,ANTOFAGASTA,AVENIDA BONILLA,7648,AVENIDA BONILLA ESQUINA JUVENAL MORLA,-23.599859,-70.378242,946,108,838,0,0,0,0,0,0,517,429,0,833,113,0,19,926,1,31,0
2020,320,4,LICEO ARTISTICO DE ANTOFAGASTA `ARMANDO CARRERA GONZALEZ`,MUNICIPAL,PERSONA JUR?ÏDICA,2,21,ANTOFAGASTA,21,ANTOFAGASTA - TOCOPILLA,2101,ANTOFAGASTA,GENERAL BORGO?ÊO,962,FRENTE HOSPITAL MILITAR,-23.66744,-70.401711,887,118,527,0,0,0,0,242,0,440,447,0,739,148,0,10,866,11,28,0
2020,322,0,ESCUELA GENERAL MANUEL BAQUEDANO,MUNICIPAL,PERSONA JUR?ÏDICA,2,21,ANTOFAGASTA,21,ANTOFAGASTA - TOCOPILLA,2101,ANTOFAGASTA,PISAGUA,741,"POBLACION LAUTARO, COSTADO SUPERMERCADO UNIMARC",-23.6231,-70.38549,620,116,504,0,0,0,0,0,0,367,253,0,423,197,0,5,613,2,20,0
2020,324,7,ESCUELA FUNDACION MINERA ESCONDIDA,MUNICIPAL,PERSONA JUR?ÏDICA,2,21,ANTOFAGASTA,21,ANTOFAGASTA - TOCOPILLA,2101,ANTOFAGASTA,SAGASCA,1510, POB. PEDRO AGUIRRE CERDA,-23.618,-70.372414,475,68,332,15,0,0,60,0,0,232,243,0,254,221,0,6,467,2,24,0
2020,326,3,ESCUELA SANTIAGO AMENGUAL B.,MUNICIPAL,PERSONA JUR?ÏDICA,2,21,ANTOFAGASTA,21,ANTOFAGASTA - TOCOPILLA,2101,ANTOFAGASTA,PASAJE A,0,"  CALLE A S/N SECTOR CORVALLIS,FRENTE A CONSULTORIO CORVALLIS",-23.627781,-70.378639,558,100,458,0,0,0,0,0,0,305,253,0,395,163,0,5,536,17,20,0
2020,329,8,INSTITUTO CIENT?ÏFICO EDUCACIONAL JOS?Î MAZA SANCHO,MUNICIPAL,PERSONA JUR?ÏDICA,2,21,ANTOFAGASTA,21,ANTOFAGASTA - TOCOPILLA,2101,ANTOFAGASTA,AVENIDA ARGENTINA,2050,"SECTOR SUR ALTO DE LA CIUDAD, COLINDA CON ESQUINA JOS?Î BERNARDO TAGLE.",-23.693741,-70.409813,616,70,399,0,0,147,0,0,0,308,308,0,547,69,0,4,611,1,17,0
2020,330,1,ESCUELA DE PARVULOS LOS PINGUINITOS,MUNICIPAL,PERSONA JUR?ÏDICA,2,21,ANTOFAGASTA,21,ANTOFAGASTA - TOCOPILLA,2101,ANTOFAGASTA,EL ROBLE,7986,POBLACI?ÙN 1?? DE MAYO,-23.59660912,-70.38334656,197,197,0,0,0,0,0,0,0,99,98,0,176,21,0,3,193,1,6,0
2020,332,8,ESCUELA GABRIELA MISTRAL,MUNICIPAL,PERSONA JUR?ÏDICA,2,21,ANTOFAGASTA,21,ANTOFAGASTA - TOCOPILLA,2101,ANTOFAGASTA,JUAN GUTEMBERG,1015," POBLACION BALMACEDA, AVENIDA LUIS CRUZ MART?ÏNEZ",-23.59593,-70.373993,583,59,524,0,0,0,0,0,0,285,298,0,376,207,0,2,579,2,18,0
2020,333,6,ESCUELA DE PARVULOS BLANCA NIEVES,MUNICIPAL,PERSONA JUR?ÏDICA,2,21,ANTOFAGASTA,21,ANTOFAGASTA - TOCOPILLA,2101,ANTOFAGASTA,IRARRAZABAL,840,"SECTOR NORTE DE LA CIUDAD,ALTURA FERIA `PANTALE?ÙN CORT?ÎS`",-23.60323906,-70.37728119,236,236,0,0,0,0,0,0,0,110,126,0,220,16,0,2,234,0,8,0
2020,335,2,COLEGIO MISIONERO JOSE LANCASTER,PARTICULAR SUBVENCIONADO,PERSONA JUR?ÏDICA,2,21,ANTOFAGASTA,21,ANTOFAGASTA - TOCOPILLA,2101,ANTOFAGASTA,AVENIDA PADRE ALBERTO HURTADO,2380,SECTOR CENTRO ALTO DE LA CIUDAD ENTRE LAS CALLES MAIP?‹ Y URIBE,-23.660089,-70.389359,584,85,357,0,0,142,0,0,0,300,284,0,433,151,0,5,574,5,14,0
2020,336,0,LICEO EXPERIMENTAL ARTISTICO-APLICACION,PARTICULAR SUBVENCIONADO,PERSONA JUR?ÏDICA,2,21,ANTOFAGASTA,21,ANTOFAGASTA - TOCOPILLA,2101,ANTOFAGASTA,COQUIMBO,827,SECTOR CENTRO SUR,-23.65575,-70.400574,1302,0,833,0,0,469,0,0,0,565,737,0,1258,44,0,10,1291,1,32,0
2020,337,9,COLEGIO SANTA TERESITA,PARTICULAR SUBVENCIONADO,PERSONA JUR?ÏDICA,2,21,ANTOFAGASTA,21,ANTOFAGASTA - TOCOPILLA,2101,ANTOFAGASTA,SIMON BOLIVAR,1038,CALLE BOLIVAR 1038 ENTRE ESMERALDA Y ATACAMA,-23.65032,-70.391411,996,0,725,0,0,271,0,0,0,467,529,0,972,24,0,8,988,0,28,0
2020,340,9,CENTRO TRATAMIEN.INTEGRAL RAYITO DE SOL,PARTICULAR SUBVENCIONADO,PERSONA JUR?ÏDICA,2,21,ANTOFAGASTA,21,ANTOFAGASTA - TOCOPILLA,2101,ANTOFAGASTA,PEDRO LEON GALLO,707,,-23.677422,-70.40916,109,0,0,0,109,0,0,0,0,59,50,0,106,3,0,3,106,0,2,0
2020,341,7,COLEGIO ADVENTISTA DE ANTOFAGASTA,PARTICULAR SUBVENCIONADO,PERSONA JUR?ÏDICA,2,21,ANTOFAGASTA,21,ANTOFAGASTA - TOCOPILLA,2101,ANTOFAGASTA,BELLAVISTA,4137,SECTOR CENTRO NORTE DE ANTOFAGASTA,-23.633221,-70.394981,814,0,510,0,0,304,0,0,0,388,426,0,786,28,0,11,797,6,21,0
2020,342,5,COLEGIO INGLES SAN JOSE,PARTICULAR SUBVENCIONADO,PERSONA JUR?ÏDICA,2,21,ANTOFAGASTA,21,ANTOFAGASTA - TOCOPILLA,2101,ANTOFAGASTA,GALLEGUILLOS LORCA,999,ESQUINA D?ÏAZ GANA CON GALLEGUILLOS LORCA,-23.665331,-70.400368,1328,140,640,0,0,548,0,0,0,657,671,0,1307,21,0,6,1282,40,34,0
2020,343,3,ESCUELA PRESBITERIANA,PARTICULAR SUBVENCIONADO,PERSONA JUR?ÏDICA,2,21,ANTOFAGASTA,21,ANTOFAGASTA - TOCOPILLA,2101,ANTOFAGASTA,URIBE,1070,URIBE CON AVENIDA ARGENTINA.SECTOR CENTRO,-23.654751,-70.39537,679,79,600,0,0,0,0,0,0,318,361,0,643,36,0,10,657,12,18,0
2020,344,1,COLEGIO SANTA EMILIA,PARTICULAR SUBVENCIONADO,PERSONA JUR?ÏDICA,2,21,ANTOFAGASTA,21,ANTOFAGASTA - TOCOPILLA,2101,ANTOFAGASTA,SARGENTO MANUEL SILVA,1014,"SECTOR NORTE DE LA CIUDAD, POR AVDA. BONILLA",-23.5893,-70.379623,963,69,628,0,0,266,0,0,0,470,493,0,953,10,0,7,955,1,26,0
2020,349,2,ESC. PARV. LAS ARDILLITAS 1,PARTICULAR PAGADO (O NO SUBVENCIONADO),SIN INFORMACI?ÙN,2,21,ANTOFAGASTA,21,ANTOFAGASTA - TOCOPILLA,2101,ANTOFAGASTA,AVENIDA EJERCITO,1530,"DENTRO DEL REGIMIENTO , CANT?ÙN DE EJ?ÎRCITO DE CHILE",-23.68204,-70.4147,0,0,0,0,0,0,0,0,0,0,0,0,0,0,0,0,0,0,0,0
2020,350,6,COLEGIO LIDIA MORENO,PARTICULAR SUBVENCIONADO,PERSONA JUR?ÏDICA,2,21,ANTOFAGASTA,21,ANTOFAGASTA - TOCOPILLA,2101,ANTOFAGASTA,21 DE MAYO,1060,CENTRO,-23.656691,-70.397247,740,0,486,0,0,254,0,0,0,347,393,0,726,14,0,8,732,0,24,0
2020,352,2,ESC. PARV. PAPELUCHO,PARTICULAR PAGADO (O NO SUBVENCIONADO),PERSONA JUR?ÏDICA,2,21,ANTOFAGASTA,21,ANTOFAGASTA - TOCOPILLA,2101,ANTOFAGASTA,LAS COLONIAS,557,FRENTE AL ESTADIO REGIONAL,-23.669407,-70.40568,0,0,0,0,0,0,0,0,0,0,0,0,0,0,0,0,0,0,0,0
2020,354,9,COL. KID'S SCHOOL,PARTICULAR PAGADO (O NO SUBVENCIONADO),SIN INFORMACI?ÙN,2,21,ANTOFAGASTA,21,ANTOFAGASTA - TOCOPILLA,2101,ANTOFAGASTA,SIMON BOLIVAR,761,,-23.648569,-70.39353,0,0,0,0,0,0,0,0,0,0,0,0,0,0,0,0,0,0,0,0
2020,355,7,COLEGIO BINACIONAL CHILENO AMERICANO DE ANTOFAGASTA(EX INS. CHILENO NORTEAMERICANO CULTURA),PARTICULAR PAGADO (O NO SUBVENCIONADO),PERSONA JUR?ÏDICA,2,21,ANTOFAGASTA,21,ANTOFAGASTA - TOCOPILLA,2101,ANTOFAGASTA,AVENIDA JOSE MIGUEL CARRERA,1445,ENTRE POUPIN Y ANTONINO TORO,-23.662185,-70.40235,264,38,146,0,0,80,0,0,0,164,100,0,257,7,0,0,264,0,18,0
2020,356,5,COLEGIO CORAZON DE MARIA,PARTICULAR SUBVENCIONADO,PERSONA JUR?ÏDICA,2,21,ANTOFAGASTA,21,ANTOFAGASTA - TOCOPILLA,2101,ANTOFAGASTA,COPIAPO,1125,,-23.657869,-70.397011,1099,150,638,0,0,311,0,0,0,525,574,0,1087,12,0,5,1093,1,28,0
2020,357,3,COL. SAN LUIS,PARTICULAR PAGADO (O NO SUBVENCIONADO),PERSONA NATURAL,2,21,ANTOFAGASTA,21,ANTOFAGASTA - TOCOPILLA,2101,ANTOFAGASTA,BAQUEDANO,855,SECTOR CENTRO DE LA CIUDAD,-23.651312,-70.39532,961,137,565,0,0,259,0,0,0,663,298,0,951,10,0,0,961,0,30,0
2020,358,1,INS. SANTA MARIA,PARTICULAR PAGADO (O NO SUBVENCIONADO),PERSONA JUR?ÏDICA,2,21,ANTOFAGASTA,21,ANTOFAGASTA - TOCOPILLA,2101,ANTOFAGASTA,MAIPU,941,"CENTRO DE ANTOFAGASTA, CERCA  SUPERMERCADO STA. ISABEL BAQUEDANO",-23.652909,-70.39543,457,64,257,0,0,136,0,0,0,81,376,0,447,10,0,3,454,0,20,0
2020,361,1,COL. THE ANTOFAGASTA BRITISH SCHOOL,PARTICULAR PAGADO (O NO SUBVENCIONADO),PERSONA JUR?ÏDICA,2,21,ANTOFAGASTA,21,ANTOFAGASTA - TOCOPILLA,2101,ANTOFAGASTA,PEDRO LEON GALLO,723,"SECTOR SUR, POBLACI?ÙN PLAYA BLANCA",-23.677394,-70.41035,756,131,413,0,0,212,0,0,0,377,379,0,729,27,0,0,756,0,30,0
2020,364,6,COL. ANTOFAGASTA,PARTICULAR PAGADO (O NO SUBVENCIONADO),PERSONA JUR?ÏDICA,2,21,ANTOFAGASTA,21,ANTOFAGASTA - TOCOPILLA,2101,ANTOFAGASTA,AVENIDA ASCOTAN SUR,220,"SECTOR NORTE LA CHIMBA, ANTOFAGASTA",-23.637772,-70.39362,563,68,369,0,0,126,0,0,0,273,290,0,546,17,0,1,562,0,24,0
2020,365,4,COLEGIO EAGLE SCHOOL,PARTICULAR SUBVENCIONADO,PERSONA JUR?ÏDICA,2,21,ANTOFAGASTA,21,ANTOFAGASTA - TOCOPILLA,2101,ANTOFAGASTA,MANUEL ANTONIO MATTA,2966,MATTA ESQUINA AVDA.ARGENTINA.,-23.647011,-70.392281,880,96,538,0,0,246,0,0,0,439,441,0,873,7,0,5,874,1,32,0
2020,366,2,HRVATSKA SKOLA S. ESTEBAN (EX-J. SKOLA),PARTICULAR PAGADO (O NO SUBVENCIONADO),PERSONA JUR?ÏDICA,2,21,ANTOFAGASTA,21,ANTOFAGASTA - TOCOPILLA,2101,ANTOFAGASTA,14 DE FEBRERO,2212,,-23.653932,-70.39744,940,164,538,0,0,238,0,0,0,494,446,0,928,12,0,1,939,0,41,0
2020,367,0,COMPLEJO EDUCATIVO JUAN JOSE LATORRE BENAVENT,MUNICIPAL,PERSONA JUR?ÏDICA,2,21,ANTOFAGASTA,21,ANTOFAGASTA - TOCOPILLA,2102,MEJILLONES,SERRANO,1000,AVENIDA SERRANO N?? 1000.,-23.10523,-70.440666,1439,0,660,0,11,573,0,195,0,758,681,0,851,588,0,37,1402,0,39,0
2020,368,9,ESCUELA BASICA JULIA HERRERA VARAS,MUNICIPAL,PERSONA JUR?ÏDICA,2,21,ANTOFAGASTA,21,ANTOFAGASTA - TOCOPILLA,2102,MEJILLONES,BERNARDO O'HIGGINS,555,FRENTE ESTADIO MUNICIPAL,-23.10376,-70.447853,1061,324,727,0,10,0,0,0,0,555,506,0,863,198,0,12,1043,6,32,0
2020,369,7,ESCUELA LUCILA GODOY ALCAYAGA,MUNICIPAL,PERSONA JUR?ÏDICA,2,21,ANTOFAGASTA,21,ANTOFAGASTA - TOCOPILLA,2102,MEJILLONES,THOMPSON,250,"MICHILLA, KM.110 CARRETERA ANTOFAGASTA TOCOPILLA",-22.712311,-70.276001,19,0,19,0,0,0,0,0,0,10,9,0,17,2,0,0,19,0,0,2
2020,370,0,ESCUELA ESTACION BAQUEDANO,MUNICIPAL,PERSONA JUR?ÏDICA,2,21,ANTOFAGASTA,21,ANTOFAGASTA - TOCOPILLA,2103,SIERRA GORDA,SALVADOR ALLENDE,118,"AVENIDA SALVADOR ALLENDE 118, BAQUEDANO",-23.33522,-69.845451,173,34,139,0,0,0,0,0,0,89,84,0,132,41,0,6,164,3,10,0
2020,371,9,ESCUELA CARACOLES,MUNICIPAL,PERSONA JUR?ÏDICA,2,21,ANTOFAGASTA,21,ANTOFAGASTA - TOCOPILLA,2103,SIERRA GORDA,SALVADOR ALLENDE,204,FRENTE A LA PLAZA PRINCIPAL,-22.890829,-69.32029,130,15,81,0,0,34,0,0,0,76,54,0,99,31,0,10,119,1,14,0
2020,372,7,LICEO POLITECNICO JOSE MIGUEL QUIROZ,MUNICIPAL,PERSONA JUR?ÏDICA,2,21,ANTOFAGASTA,21,ANTOFAGASTA - TOCOPILLA,2104,TALTAL,AVENIDA MATTA,1759,FRENTE AL ESTADIO BELMOR ROJAS,-25.40234,-70.474457,506,0,176,0,0,0,0,330,0,273,233,0,482,24,0,1,505,0,20,0
2020,373,5,LICEO JUAN CORTES-MONROY CORTES,MUNICIPAL,PERSONA JUR?ÏDICA,2,21,ANTOFAGASTA,21,ANTOFAGASTA - TOCOPILLA,2104,TALTAL,AVENIDA ARTURO PRAT,652,UNA CUADRA AL NORTE DE LA PLAZA PRINCIPAL,-25.40683,-70.484734,619,0,226,0,0,393,0,0,0,288,331,0,595,24,0,6,613,0,18,0
2020,374,3,ESCUELA HOGAR VICTORIANO QUINTEROS SOTO,MUNICIPAL,PERSONA JUR?ÏDICA,2,21,ANTOFAGASTA,21,ANTOFAGASTA - TOCOPILLA,2104,TALTAL,RIQUELME,837,,-25.4072,-70.4814,421,106,283,10,22,0,0,0,0,240,181,0,400,21,0,3,413,5,20,0
2020,375,1,ESCUELA VICTOR CARVAJAL MEZA,MUNICIPAL,PERSONA JUR?ÏDICA,2,21,ANTOFAGASTA,21,ANTOFAGASTA - TOCOPILLA,2104,TALTAL,ESMERALDA,596,UBICADO A UNA CUADRA DE LA PLAZA DE ARMAS Y DE LA I. MUNICIPALIDAD DE TALTAL,-25.406651,-70.485962,538,128,396,0,14,0,0,0,0,249,289,0,522,16,0,2,533,3,17,0
2020,377,8,ESCUELA PARANAL,MUNICIPAL,PERSONA JUR?ÏDICA,2,21,ANTOFAGASTA,21,ANTOFAGASTA - TOCOPILLA,2104,TALTAL,CAMINO COSTERO,54,CAMINO COSTERO KM. 54 TALTAL-ANTOFAGASTA,-25.010099,-70.465363,36,0,36,0,0,0,0,0,0,22,14,0,36,0,0,0,36,0,0,3
2020,379,4,LICEO FEDERICO VARELA,MUNICIPAL,PERSONA JUR?ÏDICA,3,32,CHA?ÊARAL,31,COPIAP?Ù,3201,CHA?ÊARAL,ZULETA,221,SECTOR AMPLIACION,-26.344151,-70.617523,661,0,0,0,0,326,0,335,0,340,321,0,649,12,0,3,658,0,24,0
2020,380,8,ESCUELA BASICA DIEGO PORTALES PALAZUELOS,MUNICIPAL,PERSONA JUR?ÏDICA,3,32,CHA?ÊARAL,31,COPIAP?Ù,3201,CHA?ÊARAL,CARLOS CONDELL,858,BARRIO ESTACION,-26.341,-70.614601,364,55,309,0,0,0,0,0,0,192,172,0,359,5,0,8,354,2,10,0
2020,381,6,ESCUELA BASICA PEDRO LUJAN,MUNICIPAL,PERSONA JUR?ÏDICA,3,32,CHA?ÊARAL,31,COPIAP?Ù,3201,CHA?ÊARAL,GABRIELA MISTRAL,100,,-26.43018,-70.287727,155,15,140,0,0,0,0,0,0,87,68,0,153,2,0,1,154,0,9,0
2020,382,4,ESCUELA BASICA GASPAR CABRALES,MUNICIPAL,PERSONA JUR?ÏDICA,3,32,CHA?ÊARAL,31,COPIAP?Ù,3201,CHA?ÊARAL,GABRIELA MISTRAL,500,BARQUITO/ CHA?ÊARAL,-26.35976,-70.641693,364,49,315,0,0,0,0,0,0,187,177,0,362,2,0,1,363,0,11,0
2020,383,2,ESC. BAS. DIFERENCIAL JOSE LUIS OLIVARES A.,MUNICIPAL,PERSONA JUR?ÏDICA,3,32,CHA?ÊARAL,31,COPIAP?Ù,3201,CHA?ÊARAL,AVENIDA ARTURO PRAT,1594,AVDA.ARTURO PRAT ESQUINA LIBERTAD,-26.34287834,-70.61779022,65,0,0,0,65,0,0,0,0,49,16,0,65,0,0,2,60,3,2,0
2020,384,0,LICEO BICENTENARIO  MANUEL MAGALHAES MEDLING,MUNICIPAL,PERSONA JUR?ÏDICA,3,32,CHA?ÊARAL,31,COPIAP?Ù,3202,DIEGO DE ALMAGRO,ORIENTE 2,703,,-26.393299,-70.055901,508,0,0,0,0,363,0,145,0,259,249,0,493,15,0,20,488,0,20,0
2020,386,7,ESCUELA ALIRO LAMAS CASTILLO,MUNICIPAL,PERSONA JUR?ÏDICA,3,32,CHA?ÊARAL,31,COPIAP?Ù,3202,DIEGO DE ALMAGRO,AVENIDA DIEGO DE ALMAGRO,302,"AVENIDA DIEGO DE ALMAGRO 501, FRENTE DE LA PLAZA TEM?¸TICA.",-26.387899,-70.045731,659,122,532,0,5,0,0,0,0,360,299,0,637,22,0,55,603,1,25,0
2020,387,5,ESC. BASICA EMPERATRIZ SEPULVEDA LANDEROS,MUNICIPAL,PERSONA JUR?ÏDICA,3,32,CHA?ÊARAL,31,COPIAP?Ù,3202,DIEGO DE ALMAGRO,ARTURO PRAT,400,,-26.38546,-70.050751,37,0,37,0,0,0,0,0,0,17,20,0,37,0,0,6,29,2,0,2
2020,390,5,ESCUELA COEDUCACIONAL PARTICULAR,PARTICULAR SUBVENCIONADO,PERSONA JUR?ÏDICA,3,32,CHA?ÊARAL,31,COPIAP?Ù,3202,DIEGO DE ALMAGRO,AVENIDA DIEGO PORTALES,1510,DIEGO PORTALES 1510,-26.243219,-69.62278,839,144,695,0,0,0,0,0,0,416,423,0,820,19,0,8,814,17,24,0
2020,392,1,LICEO DIEGO DE ALMEIDA,PARTICULAR SUBVENCIONADO,PERSONA JUR?ÏDICA,3,32,CHA?ÊARAL,31,COPIAP?Ù,3202,DIEGO DE ALMAGRO,AVENIDA POTRERILLOS SUR,2508,EL SALVADOR,-26.24929,-69.626503,638,0,183,0,7,408,40,0,0,305,333,0,621,17,0,16,621,1,24,0
2020,396,4,INSTITUTO COMERCIAL ALEJANDRO RIVERA DIAZ,MUNICIPAL,PERSONA JUR?ÏDICA,3,31,COPIAP?Ù,31,COPIAP?Ù,3101,COPIAP?Ù,LOS CARRERA,435,UNA CUADRA Y MEDIA HACIA EL NORPONIENTE DESDE LA PLAZA DE ARMAS DE LA CIUDAD.,-27.363791,-70.334877,657,0,0,0,0,0,0,657,0,305,352,0,583,74,0,23,634,0,22,0
2020,397,2,LICEO T?ÎCNICO PROFESIONAL EDWIN LATORRE RIVERO,MUNICIPAL,PERSONA JUR?ÏDICA,3,31,COPIAP?Ù,31,COPIAP?Ù,3101,COPIAP?Ù,COPAYAPU,0,S/N (RECINTO CARCEL),-27.3730793,-70.32965088,120,0,0,58,0,0,25,0,37,97,23,0,114,6,0,0,120,0,9,0
2020,399,9,LICEO JOSE ANTONIO CARVAJAL,MUNICIPAL,PERSONA JUR?ÏDICA,3,31,COPIAP?Ù,31,COPIAP?Ù,3101,COPIAP?Ù,AVENIDA CAMILO HENRIQUEZ,150,ENTRE AV. HENR?ÏQUEZ Y COPAYAPU,-27.37435,-70.328217,859,0,0,0,0,357,0,502,0,402,457,0,778,81,0,25,834,0,28,0
2020,400,6,LICEO BICENTENARIO MERCEDES FRITIS MACKENNEY,MUNICIPAL,PERSONA JUR?ÏDICA,3,31,COPIAP?Ù,31,COPIAP?Ù,3101,COPIAP?Ù,AVENIDA HENRIQUEZ,589,ENTRE CALLE RODRIGUEZ Y LOS CARRERAS,-27.369619,-70.325371,983,0,297,0,0,686,0,0,0,401,582,0,947,36,0,31,952,0,30,0
2020,401,4,ESCUELA BERNARDO O HIGGINS,MUNICIPAL,PERSONA JUR?ÏDICA,3,31,COPIAP?Ù,31,COPIAP?Ù,3101,COPIAP?Ù,PORTALES,599,,-27.362459,-70.329453,884,180,704,0,0,0,0,0,0,474,410,0,873,11,0,28,845,11,26,0
2020,403,0,ESCUELA LAURA ROBLES SILVA,MUNICIPAL,PERSONA JUR?ÏDICA,3,31,COPIAP?Ù,31,COPIAP?Ù,3101,COPIAP?Ù,CORCOVADO,1375,,-27.373711,-70.306473,706,106,600,0,0,0,0,0,0,369,337,0,625,81,0,29,668,9,28,0
2020,404,9,ESC.EDUC.DIFERENCIAL MARIA LUZ LANZA PIZARRO,MUNICIPAL,PERSONA JUR?ÏDICA,3,31,COPIAP?Ù,31,COPIAP?Ù,3101,COPIAP?Ù,LOS HEROES,454,DETR?¸S DE INDURA,-27.37200356,-70.32041168,147,0,0,0,147,0,0,0,0,91,56,0,138,9,0,3,141,3,3,0
2020,405,7,ESCUELA LOS ESTANDARTES,MUNICIPAL,PERSONA JUR?ÏDICA,3,31,COPIAP?Ù,31,COPIAP?Ù,3101,COPIAP?Ù,ALMIRANTE LATORRE,0," ESQ. CAUPOLICAN POBL. AMPLIACION PRAT, DETRAS DE LA COMISARIA UBICADA EN AVENIDA LOS LOROS. EL COLEGIO ES UN EDIFICIO DE 3 PISOS COLOR AZUL.-",-27.36982,-70.313591,619,106,513,0,0,0,0,0,0,329,290,0,567,52,0,16,586,17,21,0
2020,406,5,ESCUELA VICENTE SEPULVEDA ROJO,MUNICIPAL,PERSONA JUR?ÏDICA,3,31,COPIAP?Ù,31,COPIAP?Ù,3101,COPIAP?Ù,EUSEBIO LILLO,997,SECTOR ALTO PEDRO LE?ÙN GALLO.  COPIAP?∆.,-27.35685,-70.322128,739,133,606,0,0,0,0,0,0,428,311,0,574,165,0,23,711,5,28,0
2020,407,3,ESCUELA JESUS FERNANDEZ HIDALGO,MUNICIPAL,PERSONA JUR?ÏDICA,3,31,COPIAP?Ù,31,COPIAP?Ù,3101,COPIAP?Ù,CERRO BLANCO,323, POB. ROSARIO,-27.374941,-70.337769,361,69,292,0,0,0,0,0,0,200,161,0,311,50,0,12,349,0,20,0
2020,408,1,ESCUELA PEDRO LEON GALLO,MUNICIPAL,PERSONA JUR?ÏDICA,3,31,COPIAP?Ù,31,COPIAP?Ù,3101,COPIAP?Ù,CALLE MIRAFLORES,860,POBLACION PEDRO LEON GALLO,-27.361481,-70.324944,1150,177,973,0,0,0,0,0,0,620,530,0,1115,35,0,24,1112,14,33,0
2020,410,3,ESCUELA JOSE MANSO DE VELASCO,MUNICIPAL,PERSONA JUR?ÏDICA,3,31,COPIAP?Ù,31,COPIAP?Ù,3101,COPIAP?Ù,MANSO DE VELASCO,1046,AVENIDA LOS LOROS ESQUINA MANSO DE VELASCO.,-27.36322,-70.318581,585,72,513,0,0,0,0,0,0,327,258,0,504,81,0,10,571,4,18,0
2020,411,1,ESCUELA LAS CANTERAS,MUNICIPAL,PERSONA JUR?ÏDICA,3,31,COPIAP?Ù,31,COPIAP?Ù,3101,COPIAP?Ù,SECUNDINO PEREZ,0,"S/N  POBLACION LAS CANTERAS. SECUNDINO  PEREZ S/N ESQUINA BELIZARIO L?ÙPEZ, FRENTE A  LA PLAZOLETA  LAS CANTERAS.",-27.37129,-70.320618,648,118,530,0,0,0,0,0,0,376,272,0,598,50,0,37,583,28,20,0
2020,413,8,ESCUELA LAS BRISAS,MUNICIPAL,PERSONA JUR?ÏDICA,3,31,COPIAP?Ù,31,COPIAP?Ù,3101,COPIAP?Ù,PASAJE FRESIA CARTAVIO,349,"SUBIR POR CALLE YERBAS BUENAS, LUEGO SUBIR POR PASAJE FRESIA HASTA EL FINAL",-27.35573196,-70.3310318,263,33,230,0,0,0,0,0,0,139,124,0,187,76,0,6,257,0,10,0
2020,415,4,LICEO DE M?‹SICA DE COPIAP?Ù HUGO GARRIDO GAETE,MUNICIPAL,PERSONA JUR?ÏDICA,3,31,COPIAP?Ù,31,COPIAP?Ù,3101,COPIAP?Ù,ANDRES BELLO,170,,-27.37387848,-70.32836151,1037,0,702,0,0,335,0,0,0,503,534,0,1032,5,0,26,1011,0,26,0
2020,416,2,ESCUELA ABRAHAM SEPULVEDA PIZARRO,MUNICIPAL,PERSONA JUR?ÏDICA,3,31,COPIAP?Ù,31,COPIAP?Ù,3101,COPIAP?Ù,JUAN MARTINEZ,351,A 200 MTS. AL NORTE DE LA ESTACI?ÙN DE FERROCARRILES,-27.35737,-70.347443,732,137,595,0,0,0,0,0,0,414,318,0,683,49,0,26,690,16,23,0
2020,417,0,COLEGIO BUEN PASTOR,MUNICIPAL,PERSONA JUR?ÏDICA,3,31,COPIAP?Ù,31,COPIAP?Ù,3101,COPIAP?Ù,GUILLERMO MATTA,316,ENTRE O`HIGGINS Y ATACAMA Y AVDA HENR?ÏQUEZ.,-27.371309,-70.328178,837,121,716,0,0,0,0,0,0,468,369,0,826,11,0,15,818,4,22,0
2020,418,9,ESCUELA ISABEL PENA MORALES,MUNICIPAL,PERSONA JUR?ÏDICA,3,31,COPIAP?Ù,31,COPIAP?Ù,3101,COPIAP?Ù,LOS CARRERA,2999,,-27.3839,-70.307793,1189,177,1012,0,0,0,0,0,0,660,529,0,1135,54,0,22,1144,23,38,0
2020,419,7,ESCUELA HERNAN MARQUEZ HUERTA,MUNICIPAL,PERSONA JUR?ÏDICA,3,31,COPIAP?Ù,31,COPIAP?Ù,3101,COPIAP?Ù,NUEVA PRAT,0, S/N ESTACION PAIPOTE CERCA DE CONSULTORIO DE SALUD Y CERCANO A RET?ÎN DE CARABINEROS.,-27.41272,-70.273323,778,102,578,0,0,0,98,0,0,426,352,0,747,31,0,102,664,12,27,0
2020,420,0,LICEO FERNANDO ARIZT?ÏA RUIZ,MUNICIPAL,PERSONA JUR?ÏDICA,3,31,COPIAP?Ù,31,COPIAP?Ù,3101,COPIAP?Ù,COLLIPULLI,1601,CERCANO A LA DEFENSA DE LA QUEBRADA PAIPOTE,-27.40682,-70.269547,1283,175,812,0,0,296,0,0,0,657,626,0,1157,126,0,127,1134,22,46,0
2020,421,9,ESCUELA BRUNO ZAVALA FREDES,MUNICIPAL,PERSONA JUR?ÏDICA,3,31,COPIAP?Ù,31,COPIAP?Ù,3101,COPIAP?Ù,ORIENTE 3 B,73,LOS AROMOS CON ORIENTE 3 AL OESTE. SANTA ELVIRA,-27.380211,-70.322678,1132,190,942,0,0,0,0,0,0,616,516,0,1090,42,0,65,1053,14,30,0
2020,423,5,ESCUELA SAN PEDRO,MUNICIPAL,PERSONA JUR?ÏDICA,3,31,COPIAP?Ù,31,COPIAP?Ù,3101,COPIAP?Ù,CAMINO PUBLICO,830,PANAMERICANA NORTE KM 830. REFERENCIA PASARELA SAN PEDRO,-27.324381,-70.538589,264,62,202,0,0,0,0,0,0,134,130,0,252,12,0,40,223,1,10,0
2020,427,8,ESCUELA LUIS CRUZ MARTINEZ,MUNICIPAL,PERSONA JUR?ÏDICA,3,31,COPIAP?Ù,31,COPIAP?Ù,3101,COPIAP?Ù,LOS CARRERA,4169,"LOS CARRERA ESQUINA CALLEJ?ÙN PEDRO LE?ÙN GALLO, PLACILLA MORALES",-27.39292,-70.298683,409,81,328,0,0,0,0,0,0,213,196,0,391,18,0,49,358,2,12,0
2020,429,4,LICEO CATOLICO ATACAMA,PARTICULAR SUBVENCIONADO,PERSONA JUR?ÏDICA,3,31,COPIAP?Ù,31,COPIAP?Ù,3101,COPIAP?Ù,YERBAS BUENAS,67,,-27.366802,-70.3368,2102,297,1221,0,0,584,0,0,0,1044,1058,0,2096,6,0,17,2076,9,60,0
2020,430,8,LICEO POLITECNICO BELEN,PARTICULAR SUBVENCIONADO,PERSONA JUR?ÏDICA,3,31,COPIAP?Ù,31,COPIAP?Ù,3101,COPIAP?Ù,INFANTE,407,,-27.361509,-70.333351,1063,150,620,0,0,116,0,177,0,0,1063,0,1021,42,0,30,1031,2,30,0
2020,431,6,LICEO SAGRADO CORAZON,PARTICULAR SUBVENCIONADO,PERSONA JUR?ÏDICA,3,31,COPIAP?Ù,31,COPIAP?Ù,3101,COPIAP?Ù,CHANARCILLO,350,SECTOR CENTRO,-27.366791,-70.337898,917,118,545,0,0,254,0,0,0,0,917,0,900,17,0,57,855,5,28,0
2020,433,2,COLEGIO ADVENTISTA DE COPIAPO,PARTICULAR SUBVENCIONADO,PERSONA JUR?ÏDICA,3,31,COPIAP?Ù,31,COPIAP?Ù,3101,COPIAP?Ù,LOS CARRERA,1106,LOS CARRERA N?? 1106 SECTOR CENTRO,-27.369869,-70.32711,1001,0,676,0,0,325,0,0,0,535,466,0,986,15,0,25,976,0,24,0
2020,434,0,ESCUELA SAN VICENTE DE PAUL,PARTICULAR SUBVENCIONADO,PERSONA JUR?ÏDICA,3,31,COPIAP?Ù,31,COPIAP?Ù,3101,COPIAP?Ù,WILLIAMS REBOLLEDO,1611,"LOS LOROS CON SOTOMAYOR, AMPL. ARTURO PRAT - COPIAPO",-27.367359,-70.315086,864,168,696,0,0,0,0,0,0,450,414,0,859,5,0,11,852,1,21,0
2020,437,5,ESCUELA TECNICO PROFESIONAL,PARTICULAR SUBVENCIONADO,PERSONA JUR?ÏDICA,3,31,COPIAP?Ù,31,COPIAP?Ù,3101,COPIAP?Ù,AVENIDA RAMON FREIRE,100,RAM?ÙN FREIRE ESQUINA CON CALLE VICENTE BLANCO,-27.36244,-70.345718,1223,0,0,0,0,354,0,869,0,655,568,0,1191,32,0,32,1191,0,28,0
2020,438,3,LICEO MANUEL BLANCO ENCALADA,MUNICIPAL,PERSONA JUR?ÏDICA,3,31,COPIAP?Ù,31,COPIAP?Ù,3102,CALDERA,CANAL BEAGLE,706,COSTADO DE LA POSTA,-27.07362,-70.826851,400,0,0,0,0,107,0,293,0,227,173,0,371,29,0,35,365,0,16,0
2020,439,1,ESCUELA TOTORAL,MUNICIPAL,PERSONA JUR?ÏDICA,3,31,COPIAP?Ù,31,COPIAP?Ù,3101,COPIAP?Ù,AVENIDA ESMERALDA,0,ESMERALDA 41 TOTORAL,-27.367649,-70.312523,3,0,3,0,0,0,0,0,0,1,2,0,3,0,0,0,3,0,3,0
2020,440,5,COLEGIO PARROQUIAL PADRE NEGRO,PARTICULAR SUBVENCIONADO,PERSONA JUR?ÏDICA,3,31,COPIAP?Ù,31,COPIAP?Ù,3102,CALDERA,PAIPOTE,600,"LA CALLE SE ENCUENTRA ENTRE BATALLON DE ATACAMA Y COQUIMBO, ES UN EDIFICIO PINTADO DE AMARILLO Y NARANJA FUERTE QUE SE VE DE LEJOS Y ABARCA TODA LA CUADRA",-27.0695,-70.810699,1164,127,646,0,0,151,0,240,0,556,608,0,1151,13,0,21,1139,4,32,0
2020,441,3,ESCUELA DE CONCENTRACION,MUNICIPAL,PERSONA JUR?ÏDICA,3,31,COPIAP?Ù,31,COPIAP?Ù,3103,TIERRA AMARILLA,FERROCARRILES,0,"EN LA CALLE DEL RET?ÎN DE CARABINEROS, ENTRE LA CL?ÏNICA DE LAS ACHS Y LA POSTA MUNICIPAL",-27.477699,-70.253197,259,30,131,0,5,0,42,51,0,134,125,0,239,20,0,35,224,0,19,0
2020,442,1,ESCUELA VICTOR MANUEL SANCHEZ CABANAS,MUNICIPAL,PERSONA JUR?ÏDICA,3,31,COPIAP?Ù,31,COPIAP?Ù,3103,TIERRA AMARILLA,MIGUEL LEMEUR,471,CALLE PRINCIPAL,-27.483,-70.267448,479,73,406,0,0,0,0,0,0,236,243,0,472,7,0,35,439,5,13,0
2020,444,8,ESCUELA LUIS URIBE ORREGO,MUNICIPAL,PERSONA JUR?ÏDICA,3,31,COPIAP?Ù,31,COPIAP?Ù,3103,TIERRA AMARILLA,FERROCARRIL,157,CALLE FERROCARRIL N??157 SECTOR PUNTA DEL COBRE,-27.49749,-70.266144,467,51,402,0,14,0,0,0,0,255,212,0,457,10,0,43,422,2,19,0
2020,445,6,ESCUELA PAUL HARRIS,MUNICIPAL,PERSONA JUR?ÏDICA,3,31,COPIAP?Ù,31,COPIAP?Ù,3103,TIERRA AMARILLA,PARCELA 7,0,IGLESIA DE NANTOCO.,-27.50318,-70.264992,34,6,28,0,0,0,0,0,0,19,15,0,32,2,0,8,26,0,4,1
2020,446,4,ESCUELA AMOLANAS,MUNICIPAL,PERSONA JUR?ÏDICA,3,31,COPIAP?Ù,31,COPIAP?Ù,3103,TIERRA AMARILLA,CARRETERA C-35,0,CARRETERA C-35 TIERRA AMARILLA- HACIENDA AMOLANAS,-27.97069,-70.001984,40,15,25,0,0,0,0,0,0,22,18,0,36,4,0,18,22,0,0,3
2020,447,2,ESCUELA SAN ANTONIO,MUNICIPAL,PERSONA JUR?ÏDICA,3,31,COPIAP?Ù,31,COPIAP?Ù,3103,TIERRA AMARILLA,HDA SAN ANTONIO,0,CARRETERA C-35 TIERRA AMARILLA,-27.878361,-70.054153,6,0,6,0,0,0,0,0,0,1,5,0,6,0,0,2,4,0,2,1
2020,448,0,LICEO PEDRO TRONCOSO MACHUCA,SERVICIO LOCAL DE EDUCACI?ÙN,PERSONA JUR?ÏDICA,3,33,HUASCO,32,HUASCO,3301,VALLENAR,RAMIREZ,1115,"RAM?ÏREZ, ESQUINA COLCHAGUA",-28.57592,-70.757088,764,0,0,0,0,764,0,0,0,356,408,0,748,16,0,62,702,0,24,0
2020,449,9,LICEO JOSE SANTOS OSSA,SERVICIO LOCAL DE EDUCACI?ÙN,PERSONA JUR?ÏDICA,3,33,HUASCO,32,HUASCO,3301,VALLENAR,VALDIVIA,637,PRAT ESQUINA VALDIVIA AL NACIENTE,-28.58086,-70.752251,637,0,0,0,0,0,0,637,0,501,136,0,630,7,0,42,595,0,22,0
2020,450,2,ESCUELA HERMANOS CARRERA,SERVICIO LOCAL DE EDUCACI?ÙN,PERSONA JUR?ÏDICA,3,33,HUASCO,32,HUASCO,3301,VALLENAR,LOS MORTEROS,1254,VILLA EL ED?ÎN  SECTOR ALTIPLANO NORTE DE VALLENAR,-28.562389,-70.777779,233,32,201,0,0,0,0,0,0,122,111,0,224,9,0,6,224,3,10,0
2020,452,9,ESCUELA GABRIELA MISTRAL,SERVICIO LOCAL DE EDUCACI?ÙN,PERSONA JUR?ÏDICA,3,33,HUASCO,32,HUASCO,3301,VALLENAR,J J VALLEJOS,703,SERRANO ESQUINA JOSE JOAQUIN VALLEJOS,-28.575741,-70.762253,400,70,330,0,0,0,0,0,0,202,198,0,393,7,0,6,387,7,10,0
2020,453,7,ESCUELA IGNACIO CARRERA PINTO,SERVICIO LOCAL DE EDUCACI?ÙN,PERSONA JUR?ÏDICA,3,33,HUASCO,32,HUASCO,3301,VALLENAR,MERCED,960,,-28.577009,-70.75457,765,123,639,0,3,0,0,0,0,413,352,0,759,6,0,18,746,1,21,0
2020,454,5,ESCUELA GREGORIO CASTILLO MAR?ÏN,SERVICIO LOCAL DE EDUCACI?ÙN,PERSONA JUR?ÏDICA,3,33,HUASCO,32,HUASCO,3301,VALLENAR,COMPA?ÊIA,2369,,-28.5893,-70.752007,920,141,779,0,0,0,0,0,0,493,427,0,902,18,0,214,698,8,25,0
2020,455,3,ESCUELA REPUBLICA DE LOS E.E.U.U.,SERVICIO LOCAL DE EDUCACI?ÙN,PERSONA JUR?ÏDICA,3,33,HUASCO,32,HUASCO,3301,VALLENAR,AVENIDA CENTRAL,0,"SIN NUMERO, SECTOR QUINTA VALLE.",-28.58423,-70.747948,352,60,292,0,0,0,0,0,0,183,169,0,343,9,0,16,336,0,10,0
2020,456,1,ESC. EDUC.DIFERENC LUIS IRIARTE IRIARTE,SERVICIO LOCAL DE EDUCACI?ÙN,PERSONA JUR?ÏDICA,3,33,HUASCO,32,HUASCO,3301,VALLENAR,ARTURO PRAT,2802,,-28.5835743,-70.74552917,97,0,0,0,97,0,0,0,0,62,35,0,96,1,0,4,93,0,2,0
2020,458,8,ESCUELA ARTURO PEREZ CANTO,SERVICIO LOCAL DE EDUCACI?ÙN,PERSONA JUR?ÏDICA,3,33,HUASCO,32,HUASCO,3301,VALLENAR,AVENIDA ARGENTINA,2895,"AVENIDA ARGENTINA 2895 - POBLACI?ÙN BAQUEDANO, VILLA CONCEPCI?ÙN, VALLENAR",-28.58073,-70.742218,337,58,279,0,0,0,0,0,0,189,148,0,331,6,0,45,292,0,10,0
2020,459,6,ESCUELA BASICA ESPANA,SERVICIO LOCAL DE EDUCACI?ÙN,PERSONA JUR?ÏDICA,3,33,HUASCO,32,HUASCO,3301,VALLENAR,AVENIDA LOURDES,1471,POBLACION BAQUEDANO,-28.57317,-70.750839,631,96,535,0,0,0,0,0,0,335,296,0,616,15,0,58,568,5,20,0
2020,461,8,ESCUELA LUIS CRUZ MARTINEZ,SERVICIO LOCAL DE EDUCACI?ÙN,PERSONA JUR?ÏDICA,3,33,HUASCO,32,HUASCO,3301,VALLENAR,ANDRES BELLO,1137,POBLACION CARRERA,-28.56885,-70.760941,326,53,273,0,0,0,0,0,0,163,163,0,325,1,0,14,312,0,11,0
2020,462,6,ESCUELA JOSE CAROCA LAFLOR,SERVICIO LOCAL DE EDUCACI?ÙN,PERSONA JUR?ÏDICA,3,33,HUASCO,32,HUASCO,3301,VALLENAR,AVENIDA LOS SAUCE,0,"S/N, SECTOR LA TURBINA, ENTRE CALLE TALCA Y ALGARROBILLA",-28.57796097,-70.76158142,385,81,304,0,0,0,0,0,0,181,204,0,359,26,0,28,355,2,10,0
2020,463,4,ESCUELA BASICA ROBERTO CUADRA ALQUINTA,SERVICIO LOCAL DE EDUCACI?ÙN,PERSONA JUR?ÏDICA,3,33,HUASCO,32,HUASCO,3301,VALLENAR,PEDRO CUADRA,0,PEDRO CUADRA S/N CALLE PRINCIPAL,-28.95513,-70.894173,141,31,110,0,0,0,0,0,0,74,67,0,141,0,0,9,132,0,10,0
2020,464,2,ESCUELA BASICA GUALBERTO KONG FERNANDEZ,SERVICIO LOCAL DE EDUCACI?ÙN,PERSONA JUR?ÏDICA,3,33,HUASCO,32,HUASCO,3301,VALLENAR,SARGENTO ALDEA,1170,SECTOR CENTRO,-28.5791,-70.759132,638,96,542,0,0,0,0,0,0,340,298,0,591,47,0,18,617,3,20,0
2020,467,7,ESCUELA HERNAN ARAVENA CONTRERAS,SERVICIO LOCAL DE EDUCACI?ÙN,PERSONA JUR?ÏDICA,3,33,HUASCO,32,HUASCO,3301,VALLENAR,HERNAN ARAVENA CONTRERAS,0,"CAMINO PRINCIPAL, ENTRADA A CACHIYUYO.",-29.037439,-70.89978,15,0,15,0,0,0,0,0,0,9,6,0,14,1,0,0,15,0,6,0
2020,468,5,ESCUELA BASICA IGNACIO FRANCO GALLO,SERVICIO LOCAL DE EDUCACI?ÙN,PERSONA JUR?ÏDICA,3,33,HUASCO,32,HUASCO,3301,VALLENAR,CAMINO PUBLICO IMPERIAL,0,CAMINO HACIA EL INTERIOR DE LA CIUDAD DE VALLENAR.,-28.62237,-70.702637,21,0,21,0,0,0,0,0,0,13,8,0,21,0,0,2,19,0,0,2
2020,469,3,ESCUELA BASICA JUSTINO LEIVA AMOR,SERVICIO LOCAL DE EDUCACI?ÙN,PERSONA JUR?ÏDICA,3,33,HUASCO,32,HUASCO,3301,VALLENAR,CAMINO PUBLICO CHANAR BLANCO,0,CHA?ÊAR BLANCO,-28.65012,-70.697227,35,0,35,0,0,0,0,0,0,15,20,0,35,0,0,11,24,0,3,1
2020,471,5,ESCUELA BASICA SARA BEMBOW VILLEGAS,SERVICIO LOCAL DE EDUCACI?ÙN,PERSONA JUR?ÏDICA,3,33,HUASCO,32,HUASCO,3301,VALLENAR,CAMINO PUBLICO,7,CAMINO PUBLICO 7 KMS AL SUR DE VALLENAR,-28.596081,-70.783417,63,15,48,0,0,0,0,0,0,33,30,0,63,0,0,6,57,0,4,2
2020,476,6,ESCUELA BASICA SOR TERESA DE LOS ANDES,SERVICIO LOCAL DE EDUCACI?ÙN,PERSONA JUR?ÏDICA,3,33,HUASCO,32,HUASCO,3301,VALLENAR,HACIENDA BUENA ESPERANZA,0,"KILOMETRO 8 CARRETERA A PUERTO DE HUASCO,DESDE LA CIUDAD DE VALLENAR",-28.56995,-70.820824,79,26,53,0,0,0,0,0,0,39,40,0,79,0,0,8,69,2,0,4
2020,478,2,LICEO SANTA MARTA,PARTICULAR SUBVENCIONADO,PERSONA JUR?ÏDICA,3,33,HUASCO,32,HUASCO,3301,VALLENAR,MERCED,1299,,-28.576159,-70.755371,1215,179,696,0,0,340,0,0,0,507,708,0,1213,2,0,16,1198,1,29,0
2020,479,0,LICEO SAN FRANCISCO,PARTICULAR SUBVENCIONADO,PERSONA JUR?ÏDICA,3,33,HUASCO,32,HUASCO,3301,VALLENAR,FAEZ,260,,-28.57444,-70.766441,977,90,359,0,0,528,0,0,0,485,492,0,970,7,0,27,950,0,23,0
2020,481,2,ESCUELA BASICA ALEJANDRO NOEMI HUERTA,SERVICIO LOCAL DE EDUCACI?ÙN,PERSONA JUR?ÏDICA,3,33,HUASCO,32,HUASCO,3303,FREIRINA,ATACAMA,744,FRENTE AL CUARTEL DE BOMBEROS DE FREIRINA,-28.50934,-71.080147,447,70,373,0,4,0,0,0,0,214,233,0,445,2,0,8,432,7,15,0
2020,482,0,ESCUELA FORTUNATO SOZA RODRIGUEZ,SERVICIO LOCAL DE EDUCACI?ÙN,PERSONA JUR?ÏDICA,3,33,HUASCO,32,HUASCO,3303,FREIRINA,AVENIDA COSTANERA,126,KIL?∆METRO 126 CARRIZALILLO,-29.10041,-71.405571,23,0,23,0,0,0,0,0,0,14,9,0,21,2,0,1,22,0,6,0
2020,483,9,ESCUELA SAMUEL E. CASTILLO LOPEZ,SERVICIO LOCAL DE EDUCACI?ÙN,PERSONA JUR?ÏDICA,3,33,HUASCO,32,HUASCO,3303,FREIRINA,TEMPLO,0,CAMINO PUBLICO KM 28 CARRETERA 46,-28.52426,-70.989647,38,0,38,0,0,0,0,0,0,24,14,0,38,0,0,2,35,1,0,2
2020,484,7,ESCUELA DE MAITENCILLO,SERVICIO LOCAL DE EDUCACI?ÙN,PERSONA JUR?ÏDICA,3,33,HUASCO,32,HUASCO,3303,FREIRINA,CARRETERA C-46,18,"CARRETERA C-46 HUASCO-VALLENAR.   KM.18, SECTOR DE MAITENCILLO",-28.531349,-70.923637,63,14,49,0,0,0,0,0,0,30,33,0,63,0,0,4,57,2,0,3
2020,485,5,ESCUELA BASICA YERBAS BUENAS,SERVICIO LOCAL DE EDUCACI?ÙN,PERSONA JUR?ÏDICA,3,33,HUASCO,32,HUASCO,3301,VALLENAR,PANAMERICANA NORTE,572,"CAMINO RURAL, CARRETERA PANAMERICANA KM. 572. COMUNA DE VALLENAR",-29.2265,-71.009857,10,0,10,0,0,0,0,0,0,5,5,0,10,0,0,0,10,0,5,0
2020,486,3,LICEO JAPON,SERVICIO LOCAL DE EDUCACI?ÙN,PERSONA JUR?ÏDICA,3,33,HUASCO,32,HUASCO,3304,HUASCO,IGNACIO CARRERA PINTO,531,"ENTRADA A HUASCO, SECTOR VILLAS LAS PALMAS",-28.46464,-71.210831,417,0,0,0,0,278,0,139,0,254,163,0,410,7,0,19,397,1,16,0
2020,487,1,ESCUELA BASICA JOSE MIGUEL CARRERA,SERVICIO LOCAL DE EDUCACI?ÙN,PERSONA JUR?ÏDICA,3,33,HUASCO,32,HUASCO,3304,HUASCO,LAS HERAS,317,POBLACION O`HIGGINS - FRENTE CONSULTORIO JUAN VERDAGUER,-28.46977,-71.219269,392,46,302,0,11,0,33,0,0,194,198,0,385,7,0,24,367,1,17,0
2020,489,8,ESCUELA EL OLIVAR,SERVICIO LOCAL DE EDUCACI?ÙN,PERSONA JUR?ÏDICA,3,33,HUASCO,32,HUASCO,3304,HUASCO,PEDRO AGUIRRE CERDA,54,CARRETERA 46 HUASCO,-28.477369,-71.173462,386,49,337,0,0,0,0,0,0,194,192,0,383,3,0,16,369,1,13,0
2020,490,1,ESCUELA PABLO NERUDA,SERVICIO LOCAL DE EDUCACI?ÙN,PERSONA JUR?ÏDICA,3,33,HUASCO,32,HUASCO,3304,HUASCO,CAMINO PUBLICO CARRIZAL BAJO,98,CARRIZAL BAJO-CAMINO PUBLICO KM 98,-28.08013,-71.148743,18,0,18,0,0,0,0,0,0,13,5,0,18,0,0,1,17,0,0,1
2020,492,8,COLEGIO PARTICULAR ENGLISH COLLEGE,PARTICULAR SUBVENCIONADO,PERSONA JUR?ÏDICA,3,33,HUASCO,32,HUASCO,3304,HUASCO,PEDRO DE VALDIVIA,347,ENTRE CALLES SARGENTO ALDEA Y CONDELL,-28.462931,-71.22773,284,48,236,0,0,0,0,0,0,148,136,0,284,0,0,2,282,0,10,0
2020,493,6,EDUCADOR ARTURO ALVEAR RAMOS,SERVICIO LOCAL DE EDUCACI?ÙN,PERSONA JUR?ÏDICA,3,33,HUASCO,32,HUASCO,3302,ALTO DEL CARMEN,CAMINO PUBLICO,72,KIL?ÙMETRO 72,-28.876011,-70.281853,207,29,178,0,0,0,0,0,0,104,103,0,205,2,0,103,104,0,10,0
2020,495,2,ESCUELA AGLADE MARIN VARGAS,SERVICIO LOCAL DE EDUCACI?ÙN,PERSONA JUR?ÏDICA,3,33,HUASCO,32,HUASCO,3302,ALTO DEL CARMEN,CAMINO PUBLICO CONAY,0,CAMINO PUBLICO S/N  CONAY,-28.970791,-70.145378,11,0,11,0,0,0,0,0,0,7,4,0,11,0,0,8,2,1,6,0
2020,496,0,ESCUELA DE CHOLLAY,SERVICIO LOCAL DE EDUCACI?ÙN,PERSONA JUR?ÏDICA,3,33,HUASCO,32,HUASCO,3302,ALTO DEL CARMEN,CAMINO PUBLICO,21,"CAMINO PUBLICO, KIL?ÙMETRO 121  A UN COSTADO DE LA IGLESIA Y JUEGOS INFANTILES.",-28.985081,-70.157173,14,0,14,0,0,0,0,0,0,7,7,0,14,0,0,11,3,0,6,0
2020,497,9,ESCUELA DE LA PAMPA,SERVICIO LOCAL DE EDUCACI?ÙN,PERSONA JUR?ÏDICA,3,33,HUASCO,32,HUASCO,3302,ALTO DEL CARMEN,CAMINO PUBLICO LA PAMPA,0,CAMINO PUBLICO S/N?? LA PAMPA,-28.97592,-70.212601,10,0,10,0,0,0,0,0,0,6,4,0,10,0,0,1,8,1,1,2
2020,498,7,ESCUELA ALGARROBILLA,SERVICIO LOCAL DE EDUCACI?ÙN,PERSONA JUR?ÏDICA,3,33,HUASCO,32,HUASCO,3302,ALTO DEL CARMEN,CAMINO PUBLICO CRUCECITA,0,CAMINO PUBLICO S/N CRUCECITA,-28.88349,-70.448227,3,0,3,0,0,0,0,0,0,1,2,0,3,0,0,1,2,0,2,0
2020,499,5,ESCUELA RICARDO CAMPILLAY CONTRERAS,SERVICIO LOCAL DE EDUCACI?ÙN,PERSONA JUR?ÏDICA,3,33,HUASCO,32,HUASCO,3302,ALTO DEL CARMEN,PADRE ALONSO GARCIA,0,"CAMINO PUBLICO, KILOMETRO 42, HACIA EL ESTE.",-28.926559,-70.462723,217,34,183,0,0,0,0,0,0,107,110,0,214,3,0,75,141,1,10,0
2020,500,2,ESCUELA BASICA RURAL EL TAMBO,SERVICIO LOCAL DE EDUCACI?ÙN,PERSONA JUR?ÏDICA,3,33,HUASCO,32,HUASCO,3302,ALTO DEL CARMEN,CAMINO PUBLICO,93,CAMINO P?‹BLICO S/N KIL?ÙMETRO 93 FRENTE A LA PLAZA DEL SECTOR.,-28.97949,-70.180038,1,0,1,0,0,0,0,0,0,0,1,0,1,0,0,1,0,0,1,0
2020,502,9,ESCUELA DE LAS MARQUESAS,SERVICIO LOCAL DE EDUCACI?ÙN,PERSONA JUR?ÏDICA,3,33,HUASCO,32,HUASCO,3302,ALTO DEL CARMEN,CAMINO PUBLICO LAS MARQUESAS,55,CAMINO PUBLICO S/N-LAS MARQUESAS KILOMETRO 55 FRENTE A LA PLAZA DEL SECTOR.,-28.82419,-70.36245,2,0,2,0,0,0,0,0,0,1,1,0,2,0,0,0,2,0,2,0
2020,503,7,ESCUELA DE LAS BREAS,SERVICIO LOCAL DE EDUCACI?ÙN,PERSONA JUR?ÏDICA,3,33,HUASCO,32,HUASCO,3302,ALTO DEL CARMEN,RAMON FREIRE,203,CAMINO P?‹BLICO S/N??,-28.994129,-70.468887,3,0,3,0,0,0,0,0,0,2,1,0,3,0,0,0,3,0,2,0
2020,504,5,ESCUELA GABRIELA MISTRAL,SERVICIO LOCAL DE EDUCACI?ÙN,PERSONA JUR?ÏDICA,3,33,HUASCO,32,HUASCO,3302,ALTO DEL CARMEN,CAMINO PUBLICO LA ARENA,0,CAMINO PUBLICO S/N ALTO DEL CARMEN- S/N?? LA ARENA,-28.925261,-70.27562,12,0,12,0,0,0,0,0,0,7,5,0,12,0,0,4,8,0,5,0
2020,506,1,ESCUELA DE LOS PERALES,SERVICIO LOCAL DE EDUCACI?ÙN,PERSONA JUR?ÏDICA,3,33,HUASCO,32,HUASCO,3302,ALTO DEL CARMEN,RAMON FREIRE,203,CAMINO PUBLICO S/N,-28.839911,-70.314697,2,0,2,0,0,0,0,0,0,0,2,0,2,0,0,0,2,0,1,0
2020,508,8,ESCUELA DE CHIGUINTO,SERVICIO LOCAL DE EDUCACI?ÙN,PERSONA JUR?ÏDICA,3,33,HUASCO,32,HUASCO,3302,ALTO DEL CARMEN,CAMINO PUBLICO,55,CAMINO PUBLICO S/N KM-55,-28.827141,-70.347099,1,0,1,0,0,0,0,0,0,0,1,0,1,0,0,1,0,0,1,0
2020,514,2,ESCUELA DE EL CORRAL,SERVICIO LOCAL DE EDUCACI?ÙN,PERSONA JUR?ÏDICA,3,33,HUASCO,32,HUASCO,3302,ALTO DEL CARMEN,CAMINO PUBLICO EL CORRAL,0,CAMINO PUBLICO S/N?? EL CORRAL  (A LA ENTRADA DEL PUEBLO,-29.016741,-70.489067,9,0,9,0,0,0,0,0,0,3,6,0,9,0,0,8,1,0,0,1
2020,516,9,LICEO GABRIELA MISTRAL DE LA SERENA,MUNICIPAL,PERSONA JUR?ÏDICA,4,41,ELQUI,41,ELQUI,4101,LA SERENA,BENAVENTE,560,ENTRE LAS CASAS Y GANDARILLA EN CENTRO LA SERENA,-29.90328,-71.244797,505,0,68,0,0,437,0,0,0,241,264,0,437,68,0,6,498,1,23,0
2020,517,7,LICEO GREGORIO CORDOVEZ,MUNICIPAL,PERSONA JUR?ÏDICA,4,41,ELQUI,41,ELQUI,4101,LA SERENA,CALLE GANDARILLAS,940,ENTRE INFANTE Y MANUEL RODR?ÏGUEZ,-29.90295,-71.243362,1023,0,305,0,0,718,0,0,0,501,522,0,970,53,0,20,1002,1,31,0
2020,518,5,LICEO TECNICO MARTA BRUNET,MUNICIPAL,PERSONA JUR?ÏDICA,4,41,ELQUI,41,ELQUI,4101,LA SERENA,AVENIDA FRANCISCO DE AGUIRRE,261,AVENIDA FRANCISCO DE AGUIRRE ESQUINA PEDRO PABLO MU?ÊOZ,-29.90633,-71.253967,387,0,0,0,0,0,0,387,0,3,384,0,366,21,0,5,382,0,12,0
2020,519,3,COLEGIO ARTURO PRAT CHACON,MUNICIPAL,PERSONA JUR?ÏDICA,4,41,ELQUI,41,ELQUI,4101,LA SERENA,ENRIQUE CAMPINO,2800,"SUBIR POR AVENIDA MEXICO HASTA CAMPINO, LUEGO DOBLAR A LA IZQUIERDA.",-29.87921,-71.240692,961,156,805,0,0,0,0,0,0,465,496,0,946,15,0,5,948,8,29,0
2020,521,5,COLEGIO VICTOR DOMINGO SILVA,MUNICIPAL,PERSONA JUR?ÏDICA,4,41,ELQUI,41,ELQUI,4101,LA SERENA,AVENIDA JUAN CISTERNAS,3240,AVENIDA JUAN CISTERNAS N??3240/ESQUINA LOS PERALES.   SECTOR VISTA HERMOSA,-29.931801,-71.252892,422,65,278,0,0,79,0,0,0,236,186,0,346,76,0,3,419,0,13,0
2020,522,3,COLEGIO JAVIERA CARRERA,MUNICIPAL,PERSONA JUR?ÏDICA,4,41,ELQUI,41,ELQUI,4101,LA SERENA,AVENIDA FRANCISCO DE AGUIRRE,141,AVENIDA FRANCISCO DE AGUIRRE AL LLEGAR A CARRETERA 5 NORTE,-29.90609,-71.25515,490,63,427,0,0,0,0,0,0,35,455,0,403,87,0,5,485,0,17,0
2020,523,1,ESCUELA ALONSO DE ERCILLA,MUNICIPAL,PERSONA JUR?ÏDICA,4,41,ELQUI,41,ELQUI,4101,LA SERENA,PEDRO AGUIRRE CERDA,2475,"COMPA?ÊIA BAJA, LA SERENA NORTE.",-29.87553,-71.247383,262,31,231,0,0,0,0,0,0,147,115,0,233,29,0,4,258,0,10,0
2020,525,8,COLEGIO JAPON,MUNICIPAL,PERSONA JUR?ÏDICA,4,41,ELQUI,41,ELQUI,4101,LA SERENA,BENAVENTE,800,"BENAVENTE 800 ESQUINA COLO COLO, AVDA DE AGUIRRE",-29.90666,-71.246277,557,62,495,0,0,0,0,0,0,362,195,0,422,135,0,15,540,2,18,0
2020,526,6,COLEGIO JOSE MANUEL BALMACEDA,MUNICIPAL,PERSONA JUR?ÏDICA,4,41,ELQUI,41,ELQUI,4101,LA SERENA,LARRAIN ALCALDE,1970,LARRA?ÏN ALCALDE CON ERNESTO PE?ÊAFIEL,-29.919991,-71.251717,574,77,338,0,0,159,0,0,0,289,285,0,557,17,0,7,565,2,14,0
2020,527,4,COLEGIO HEROES DE LA CONCEPCION,MUNICIPAL,PERSONA JUR?ÏDICA,4,41,ELQUI,41,ELQUI,4101,LA SERENA,JUAN DE DIOS PENI,180,LA SERENA CENTRO,-29.90756,-71.2547,534,65,469,0,0,0,0,0,0,368,166,0,393,141,0,10,524,0,18,0
2020,528,2,ESCUELA GERMAN RIESCO,MUNICIPAL,PERSONA JUR?ÏDICA,4,41,ELQUI,41,ELQUI,4101,LA SERENA,COLO COLO,902,COLO COLO ESQUINA INFANTE,-29.90641,-71.24469,352,63,289,0,0,0,0,0,0,75,277,0,335,17,0,7,345,0,10,0
2020,529,0,COLEGIO MANUEL RODRIGUEZ,MUNICIPAL,PERSONA JUR?ÏDICA,4,41,ELQUI,41,ELQUI,4101,LA SERENA,JUANA ROSS DE EDWARDS,0,"POBLACI?ÙN OSCAR PRAGUER, AL LADO DE LA UNIVERSIDAD DE LA SERENA POR CALLE CISTERNAS.",-29.91370201,-71.24486542,130,0,0,0,130,0,0,0,0,86,44,0,127,3,0,2,128,0,4,0
2020,530,4,COLEGIO GABRIEL GONZALEZ VIDELA,MUNICIPAL,PERSONA JUR?ÏDICA,4,41,ELQUI,41,ELQUI,4101,LA SERENA,PEDRO PABLO MUNOZ,4,ENTRE LAS CALLES ALMAGRO Y CIRUJANO VIDELA,-29.89786,-71.25341,888,57,482,0,0,230,0,119,0,504,384,0,769,119,0,11,876,1,29,0
2020,531,2,COLEGIO PEDRO AGUIRRE CERDA,MUNICIPAL,PERSONA JUR?ÏDICA,4,41,ELQUI,41,ELQUI,4101,LA SERENA,COLO COLO,0,ESQUINA CARDENAL CARO,-29.91246033,-71.22067261,451,63,284,0,0,104,0,0,0,236,215,0,429,22,0,5,443,3,14,0
2020,532,0,CEN.ED.INT.DE ADUL.ESTER VILLARREAL CASTILLO,MUNICIPAL,PERSONA JUR?ÏDICA,4,41,ELQUI,41,ELQUI,4101,LA SERENA,CALLE LAS CASAS,850,ENTRE CALLE BENAVENTE E INFANTE.,-29.9090271,-71.24658966,664,0,0,123,0,0,541,0,0,345,319,0,635,29,0,9,586,69,35,0
2020,533,9,COLEGIO DARIO SALAS,MUNICIPAL,PERSONA JUR?ÏDICA,4,41,ELQUI,41,ELQUI,4101,LA SERENA,VALPARAISO,2592,"  (PASAJE INTERIOR), ENTRE BAQUEDANO Y TENIENTE MERINO.",-29.87336,-71.242783,34,0,34,0,0,0,0,0,0,24,10,0,33,1,0,0,34,0,4,0
2020,534,7,COLEGIO VILLA SAN BARTOLOME,MUNICIPAL,PERSONA JUR?ÏDICA,4,41,ELQUI,41,ELQUI,4101,LA SERENA,ECUADOR,1650,ECUADOR 1650 CON ESTRELLA EN COMPA?Ê?ÏA ALTA,-29.886999,-71.236382,478,33,445,0,0,0,0,0,0,271,207,0,428,50,0,25,451,2,16,0
2020,535,5,COLEGIO JOSE MIGUEL CARRERA,MUNICIPAL,PERSONA JUR?ÏDICA,4,41,ELQUI,41,ELQUI,4101,LA SERENA,AVENIDA BALMACEDA,4830,PARADERO 10 LA PAMPA,-29.942751,-71.263451,612,71,386,0,0,155,0,0,0,335,277,0,518,94,0,9,603,0,18,0
2020,536,3,COLEGIO BERNARDA MORIN,MUNICIPAL,PERSONA JUR?ÏDICA,4,41,ELQUI,41,ELQUI,4101,LA SERENA,BERNARDA MORIN,903,"AVENIDA COLO COLO, ENTRE MADRE ANTONIA Y FLORENCIO FONTECILLA.",-29.91077,-71.22921,163,25,138,0,0,0,0,0,0,105,58,0,153,10,0,3,157,3,10,0
2020,537,1,COLEGIO LUIS BRAILLE,MUNICIPAL,PERSONA JUR?ÏDICA,4,41,ELQUI,41,ELQUI,4101,LA SERENA,CUATRO ESQUINAS,0,PARADERO 7 AVDA.BALMACEDA,-29.93267822,-71.25833893,37,0,0,0,37,0,0,0,0,21,16,0,36,1,0,0,37,0,2,0
2020,539,8,COLEGIO DE ALGARROBITO,MUNICIPAL,PERSONA JUR?ÏDICA,4,41,ELQUI,41,ELQUI,4101,LA SERENA,CALLEJON LUMILLA,0,KIL?ÙMETRO 8 RUTA 41,-29.93692,-71.144043,165,25,140,0,0,0,0,0,0,94,71,0,165,0,0,2,162,1,8,1
2020,540,1,ESCUELA DE ISLON,MUNICIPAL,PERSONA JUR?ÏDICA,4,41,ELQUI,41,ELQUI,4101,LA SERENA,CALLE GABRIELA MISTRAL,0, S/N PUEBLO DE ISLON - DE LA COMPA?ÊIA PUENTE ZORRILLA AL ESTE A SEIS KMS SE ENCUENTRA LA LOCALIDAD DE ISLON,-29.897869,-71.185318,96,16,80,0,0,0,0,0,0,45,51,0,93,3,0,1,95,0,10,0
2020,542,8,ESCUELA DE LAMBERT,MUNICIPAL,PERSONA JUR?ÏDICA,4,41,ELQUI,41,ELQUI,4101,LA SERENA,LAMBERT,20,LAMBERT KILOMETRO 20 - RUTA  RURAL D-255 LA SERENA,-29.843019,-71.119614,150,26,124,0,0,0,0,0,0,76,74,0,150,0,0,1,149,0,10,0
2020,543,6,COLEGIO ALTOVALSOL,MUNICIPAL,PERSONA JUR?ÏDICA,4,41,ELQUI,41,ELQUI,4101,LA SERENA,CALLE UNICA,0,CALLE PRINCIPAL DE LA LOCALIDAD-S/ N ALTOVALSOL,-29.942289,-71.121307,182,35,147,0,0,0,0,0,0,85,97,0,179,3,0,7,175,0,10,0
2020,544,4,ESCUELA DE EL MILAGRO,MUNICIPAL,PERSONA JUR?ÏDICA,4,41,ELQUI,41,ELQUI,4101,LA SERENA,CUATRO ESQUINAS,4605,"  SECTOR EL MILAGRO, AL COSTADO DEL COLEGIO ALEMAN",-29.94943619,-71.2261734,41,0,0,0,41,0,0,0,0,36,5,0,41,0,0,0,41,0,2,0
2020,546,0,COLEGIO COQUIMBITO,MUNICIPAL,PERSONA JUR?ÏDICA,4,41,ELQUI,41,ELQUI,4101,LA SERENA,LOCALIDAD RURAL COQUIMBITO,0,"DISTANCIA APROXIMADA DE LA CIUDAD DE LA SERENA 13 KM. AL NORORIENTE, TOMAR CAMINO AVENIDA ISL?ÙN HACIA EL INTERIOR.",-29.915039,-71.149437,147,30,117,0,0,0,0,0,0,66,81,0,145,2,0,1,142,4,10,0
2020,548,7,ESCUELA DE COLONIA ALFALFARES,MUNICIPAL,PERSONA JUR?ÏDICA,4,41,ELQUI,41,ELQUI,4101,LA SERENA,COLONIA ALFALFARES,0,CAMINO PUBLICO HACIA LOS HUERTOS DE LA COLONIA ALFALFARES LA SERENA,-29.90464,-71.234299,167,23,144,0,0,0,0,0,0,94,73,0,160,7,0,4,163,0,8,1
2020,549,5,ESCUELA DE LOS CORRALES,MUNICIPAL,PERSONA JUR?ÏDICA,4,41,ELQUI,41,ELQUI,4101,LA SERENA,UNICA,0,LOS CORRALES CAMINO P?‹BLICO S/N   QUEBRADA DE TALCA RUTA 41 GABRIELA MISTRAL.,-30.054319,-71.054314,0,0,0,0,0,0,0,0,0,0,0,0,0,0,0,0,0,0,0,0
2020,550,9,ESCUELA DE ALMIRANTE LATORRE,MUNICIPAL,PERSONA JUR?ÏDICA,4,41,ELQUI,41,ELQUI,4101,LA SERENA,CAMINO PRINCIPAL,60,CAMINO PRINCIPAL KM.60 LOCALIDAD ALMIRANTE LATORRE,-29.63662,-70.956871,2,0,2,0,0,0,0,0,0,2,0,0,2,0,0,0,2,0,1,0
2020,551,7,ESCUELA DE LAS ROJAS,MUNICIPAL,PERSONA JUR?ÏDICA,4,41,ELQUI,41,ELQUI,4101,LA SERENA,EDUARDO ABOTT,56,RUTA 41 SECTOR LAS ROJAS,-29.977631,-71.056519,120,25,95,0,0,0,0,0,0,64,56,0,117,3,0,12,107,1,10,0
2020,552,5,ESCUELA DE CHACAY ALTO,MUNICIPAL,PERSONA JUR?ÏDICA,4,41,ELQUI,41,ELQUI,4101,LA SERENA,EL CHACAY ALTO,30,EL CHACAY ALTO KM. 30 - CAMINO PUBLICO INTERIOR MINA ROMERAL,-29.6406,-71.095131,2,0,2,0,0,0,0,0,0,2,0,0,2,0,0,0,2,0,2,0
2020,554,1,ESCUELA DE PELICANA,MUNICIPAL,PERSONA JUR?ÏDICA,4,41,ELQUI,41,ELQUI,4101,LA SERENA,CAMINO PUBLICO PELICANA,0,CAMINO P?‹BLICO S/N?? PELICANA,-29.98753,-71.008591,7,0,7,0,0,0,0,0,0,6,1,0,7,0,0,0,7,0,0,1
2020,556,8,ESCUELA DE ROMERO,MUNICIPAL,PERSONA JUR?ÏDICA,4,41,ELQUI,41,ELQUI,4101,LA SERENA,CALLE PRINCIPAL,0,"HACIA LAS COMPA?Ê?ÏAS,PUENTE ZORRILLA ,RUTA  AVDA ISL?ÙN,PASADO QUEBRADA PUEBLO ISLON,DESV?ÏO SE?ÊALIZADO AL NORESTE AL PUEBLO EL ROMERO.EDIFICIO DOS PISOS.",-29.88866,-71.141769,191,27,164,0,0,0,0,0,0,106,85,0,190,1,0,1,189,1,10,0
2020,557,6,ESCUELA DE SATURNO,MUNICIPAL,PERSONA JUR?ÏDICA,4,41,ELQUI,41,ELQUI,4101,LA SERENA,RUTA 41,20,RUTA 41  K-20  LOCALIDAD GABRIELA MISTRAL S/N,-29.973049,-71.089233,252,51,201,0,0,0,0,0,0,124,128,0,250,2,0,3,248,1,10,0
2020,558,4,COLEGIO PUNTA DE TEATINOS,MUNICIPAL,PERSONA JUR?ÏDICA,4,41,ELQUI,41,ELQUI,4101,LA SERENA,PARCELA VEGAS NORTE,161,LA ESCUELA SE ENCUENTRA FRENTE A GRANJA SANTA ELVIRA. HACIA EL OESTE.,-29.816179,-71.280037,18,0,18,0,0,0,0,0,0,11,7,0,18,0,0,1,17,0,0,1
2020,560,6,COLEGIO QUEBRADA DE TALCA,MUNICIPAL,PERSONA JUR?ÏDICA,4,41,ELQUI,41,ELQUI,4101,LA SERENA,RUTA 41,25,RUTA 41 KM 25 QUEBRADA DE TALCA  LA SERENA  REGION COQUIMBO,-30.00819,-71.036621,186,28,158,0,0,0,0,0,0,99,87,0,185,1,0,4,181,1,10,0
2020,561,4,COLEGIO EL ROMERAL,MUNICIPAL,PERSONA JUR?ÏDICA,4,41,ELQUI,41,ELQUI,4101,LA SERENA,UNICA,0,PUEBLO EL ROMERAL,-29.72028,-71.216469,24,0,24,0,0,0,0,0,0,13,11,0,21,3,0,2,22,0,1,1
2020,562,2,COLEGIO CALETA SAN PEDRO,MUNICIPAL,PERSONA JUR?ÏDICA,4,41,ELQUI,41,ELQUI,4101,LA SERENA,AVENIDA PACIFICO,236,AVENIDA PACIFICO 236.,-29.879129,-71.271141,298,38,260,0,0,0,0,0,0,173,125,0,291,7,0,9,288,1,10,0
2020,563,0,COLEGIO LA LAJA,MUNICIPAL,PERSONA JUR?ÏDICA,4,41,ELQUI,41,ELQUI,4101,LA SERENA,LA LAJA,0,CAMINO P?‹BLICO S/N??,-29.642401,-70.772141,1,0,1,0,0,0,0,0,0,0,1,0,1,0,0,0,1,0,1,0
2020,564,9,COLEGIO LA ESTRELLA,MUNICIPAL,PERSONA JUR?ÏDICA,4,41,ELQUI,41,ELQUI,4101,LA SERENA,QUEBRADA LAS ANIMAS,0,"CAMINO PUBLICO S/N??, SECTOR MINA LA ESTRELLA, INTERIOR PUEBLO EL ROSARIO, LA SERENA",-30.034969,-71.10952,7,0,7,0,0,0,0,0,0,3,4,0,7,0,0,1,6,0,0,1
